geogname	lat	long
Allée Adrienne Lecouvreur	48.8560311	2.3003825
Allée Alexandre Vialatte	48.8221294	2.357008
Allée Alquier-Debrousse	48.8613608	2.4088677
Allée André Breton	48.8631361	2.3459796
Allée Anne de Beaujeu	48.8790455	2.3728772
Allée Arthur Honegger	48.8881045	2.3946266
Allée Célestin Hennion	48.8553606	2.3477684
Allée d'Andrézieux	48.8924565	2.3525932
Allée Darius Milhaud	48.8843106	2.3897053
Allée de la Bertelotte	48.8299533	2.2748862
Allée de la Comtesse de Ségur	48.879467	2.30904
Allée de la Garance	48.8888272	2.3896979
Allée de la Reine Marguerite	48.8618014	2.2470172
Allée de Madrid À Neuilly	48.8766272	2.2571233
Allée des Bouleaux	48.8727993	2.2622319
Allée des Brouillards	48.8885631	2.3378953
Allée des Buttes	48.825544	2.427127
Allée des Cardinoux	48.8997518	2.3721488
Allée des Cygnes	48.8533636	2.2844426
Allée des Eiders	48.8938336	2.3787324
Allée des Fortifications	48.855732	2.2618183
Allée des Frères Voisin	48.8283908	2.2726366
Allée des Hortensias	48.8278732	2.3147707
Allée des Justes de France	48.8552413	2.3557813
Allée des Lapins	48.8332586	2.4257375
Allée des Mauves	48.8568336	2.4083136
Allée des Orgues de Flandre	48.889851	2.374181
Allée des Poteaux	48.8721325	2.2708272
Allée des Vergers	48.8337593	2.3961575
Allée Diane de Poitiers	48.8735081	2.3783889
Allée du Bord de l'Eau	48.865681	2.2311536
Allée du Brindeau	48.8852431	2.3761671
Allée du Canal	48.8937405	2.3897419
Allée du Capitaine Dronne	48.8396697	2.3174336
Allée du Château Ouvrier	48.8342278	2.3186426
Allée du Chef d'Escadron de Guillebon	48.8393857	2.3196548
Allée du Commandant Raynal	48.8422688	2.2786102
Allée du Général Denain	48.8521145	2.2940888
Allée du Général Koenig	48.8818832	2.2841722
Allée du Parc de Choisy	48.8258093	2.3602155
Allée du Père Julien Dhuit	48.872494	2.3864938
Allée du Philosophe	48.8556428	2.3841423
Allée du Professeur Jean Bernard	48.8755462	2.3624913
Allée du Révérend Père Michel Riquet	48.8512456	2.3336943
Allée Fortunée	48.8494346	2.2488568
Allée Gabrielle d'Estrées	48.8735816	2.3789751
Allée Gaston Bachelard	48.8263419	2.3152806
Allée Georges Rouault	48.8696447	2.3837484
Allée Henri Dunant	48.8277424	2.314092
Allée Jules Supervielle	48.8624222	2.3445885
Allée le Gramat	48.8426358	2.2789369
Allée Louise Labé	48.875046	2.3779605
Allée Maintenon	48.8459928	2.3214183
Allée Marc Chagall	48.8199083	2.3605084
Allée Marcel Jambenoire	48.8203606	2.3470942
Allée Marcel Proust	48.8674032	2.3174936
Allée Marguerite Yourcenar	48.8524362	2.2945997
Allée Marie Laurent	48.8497497	2.4035962
Allée Marius Barroux	48.878227	2.4057624
Allée Maurice Baumont	48.8580089	2.2966168
Allée Pernette du Guillet	48.8750295	2.3769532
Allée Pierre Mollaret	48.8997694	2.3731054
Allée Pilatre de Rozier	48.8601575	2.2696168
Allée Rimsky-Korsakov	48.895311	2.365861
Allée Rodenbach	48.833826	2.3379014
Allée Royale	48.8314568	2.4332017
Allée Samuel Beckett	48.8289171	2.3344274
Allée Suzanne Lenglen	48.8471335	2.2484382
Allée Thomy-Thierry	48.8547795	2.2975563
Allée Verhaeren	48.8336011	2.3377963
Allée Verte	48.8593924	2.3703751
Allée Vivaldi	48.8414842	2.3915911
Arsenal	48.8520593	2.3654105
Avenue de la Conservation	48.8966743	2.313934
Avenue des Champs-Élysées	48.8697452	2.3079456
Avenue Albert 1er de Monaco	48.8603519	2.2904683
Avenue Albert Bartholomé	48.8284739	2.2966355
Avenue Albert de Mun	48.8630073	2.2918573
Avenue Alphand	48.8750904	2.2853069
Avenue Alphonse XIII	48.8564742	2.281247
Avenue Ambroise Rendu	48.8848039	2.3958969
Avenue Anatole France	48.8555688	2.299149
Avenue André Rivoire	48.8186633	2.3329519
Avenue Armand Rousseau	48.8360435	2.4089962
Avenue Barbey d'Aurevilly	48.8569791	2.3000785
Avenue Beaucour	48.877176	2.3022797
Avenue Benoît Frachon	48.8533632	2.4154745
Avenue Bertie Albrecht	48.8755951	2.3012223
Avenue Bosquet	48.8583045	2.3035849
Avenue Boudon	48.8496128	2.2698158
Avenue Boutroux	48.8222195	2.3754252
Avenue Brunetière	48.8899275	2.3001579
Avenue Bugeaud	48.8707087	2.2806124
Avenue Caffieri	48.8198637	2.350546
Avenue Carnot	48.8756684	2.2933649
Avenue César Caire	48.8761694	2.319472
Avenue Chantemesse	48.8666419	2.2712678
Avenue Charles de Foucauld	48.8330265	2.4045905
Avenue Charles Floquet	48.8546366	2.296767
Avenue Charles Girault	48.8666276	2.3148634
Avenue Charles Risler	48.8547575	2.3004069
Avenue Claude Vellefaux	48.8752427	2.3703263
Avenue Constant Coquelin	48.8479914	2.3161804
Avenue Corentin Cariou	48.8964219	2.3841646
Avenue Courteline	48.8441428	2.4124338
Avenue Daniel Lesueur	48.847791	2.317734
Avenue David Weill	48.8204629	2.3333778
Avenue de Boufflers	48.8500625	2.2634921
Avenue de Bouvines	48.8497783	2.3962401
Avenue de Breteuil	48.8488232	2.3114197
Avenue de Champaubert	48.850946	2.2993207
Avenue de Choisy	48.8258093	2.3602155
Avenue de Clichy	48.8899997	2.3212637
Avenue de Corbera	48.845935	2.3824431
Avenue de Flandre	48.8892942	2.3752687
Avenue de France	48.8313442	2.3761257
Avenue de Friedland	48.874342	2.3005208
Avenue de Gravelle	48.8234483	2.4298163
Avenue de la Belle Gabrielle	48.8334883	2.4684737
Avenue de la Bourdonnais	48.8575741	2.3002394
Avenue de la Chapelle	48.8809737	2.2862848
Avenue de la Frillière	48.8408643	2.2604813
Avenue de la Grande-Armée	48.8757692	2.288989
Avenue de la Grotte	48.8820931	2.3834767
Avenue de la Motte-Picquet	48.8561509	2.3083343
Avenue de La Nouvelle Pitié	48.8366266	2.3627678
Avenue de la Porte Brancion	48.8269957	2.3007989
Avenue de la Porte Brunet	48.8835867	2.3965688
Avenue de la Porte Chaumont	48.8861872	2.396766
Avenue de la Porte d'Aubervilliers	48.9002251	2.3710657
Avenue de la Porte d'Auteuil	48.8480103	2.2498298
Avenue de la Porte de Bagnolet	48.864871	2.4106833
Avenue de la Porte de Champerret	48.8862476	2.2871989
Avenue de la Porte de Charenton	48.8306154	2.3996009
Avenue de la Porte de Choisy	48.8185967	2.3658821
Avenue de la Porte de Clignancourt	48.8997506	2.3441325
Avenue de la Porte de la Chapelle	48.9000926	2.3594929
Avenue de la Porte de la Plaine	48.829206	2.2923256
Avenue de la Porte de la Villette	48.8996204	2.3877648
Avenue de la Porte de Ménilmontant	48.8705899	2.4089454
Avenue de la Porte de Montmartre	48.8994228	2.336121
Avenue de la Porte de Montreuil	48.8537187	2.4118171
Avenue de la Porte de Montrouge	48.822009	2.3221887
Avenue de la Porte de Plaisance	48.829379	2.2957225
Avenue de la Porte de Saint-Ouen	48.8991971	2.329326
Avenue de la Porte de Sèvres	48.8349703	2.2777517
Avenue de la Porte de Vanves	48.8257889	2.3043434
Avenue de la Porte de Vincennes	48.8467511	2.4137226
Avenue de la Porte de Vitry	48.822844	2.3779237
Avenue de la Porte des Poissonniers	48.8998868	2.3523111
Avenue de la Porte des Ternes	48.8813567	2.2825017
Avenue de la Porte Didot	48.8259796	2.3104561
Avenue de la Porte d'Ivry	48.8203538	2.3716582
Avenue de la Porte d'Orléans	48.8208434	2.325546
Avenue de la Porte du Pré Saint-Gervais	48.8806025	2.4015279
Avenue de la Porte Molitor	48.8451232	2.2542947
Avenue de la Porte Pouchet	48.8980404	2.3232494
Avenue de la République	48.8650197	2.3758909
Avenue de la Sibelle	48.8256869	2.3382514
Avenue de la Soeur Rosalie	48.8319919	2.3536262
Avenue de la Tunisie	48.821275	2.3362938
Avenue de l'Abbé Roussel	48.8502173	2.27184
Avenue de Lamballe	48.8544936	2.2813856
Avenue de Laumière	48.8842461	2.3802002
Avenue de l'École de Joinville	48.8199036	2.4575088
Avenue de l'Hippodrome	48.8584963	2.2451366
Avenue de l'Hippodrome	48.8581016	2.2553029
Avenue de l'Observatoire	48.8404177	2.3367233
Avenue de l'Opéra	48.8666082	2.3340292
Avenue de Lowendal	48.8507617	2.3057404
Avenue de Malakoff	48.8750944	2.2839598
Avenue de Marigny	48.8690281	2.314787
Avenue de Messine	48.8764692	2.3129117
Avenue de Montespan	48.8655199	2.2776836
Avenue de Montmorency	48.8493129	2.2646201
Avenue de New York	48.8624984	2.2939522
Avenue de Nogent	48.8406514	2.4537056
Avenue de Paris, France	48.8455661	2.428443
Avenue de Pologne	48.8692792	2.2729305
Avenue de Provence	48.8750123	2.3343345
Avenue de Puebla	48.8781626	2.3800148
Avenue de Rouvray	48.8460812	2.2645051
Avenue de Saint-Cloud	48.853518	2.248993
Avenue de Saint-Mandé	48.8449589	2.4028083
Avenue de Saint-Ouen	48.893026	2.3274767
Avenue de Salonique	48.8822041	2.2838748
Avenue de Saxe	48.848107	2.3101196
Avenue de Ségur	48.8501512	2.3084561
Avenue de Selves	48.8677891	2.3120266
Avenue de Suffren	48.8515693	2.3002641
Avenue de Taillebourg	48.8493777	2.3973744
Avenue de Tourville	48.8539166	2.3106409
Avenue de Valois	48.880438	2.3127475
Avenue de Verdun	48.8765235	2.3621912
Avenue de Versailles	48.8439382	2.2702131
Avenue de Verzy	48.881473	2.287868
Avenue de Villars	48.8521909	2.3138489
Avenue de Villiers	48.8838652	2.3045667
Avenue de Wagram	48.8806652	2.3000451
Avenue Debidour	48.8814099	2.3970277
Avenue Delcassé	48.8728879	2.3147379
Avenue Delecourt	48.8457513	2.292308
Avenue Denfert-Rochereau	48.8365334	2.3344509
Avenue des Arts	48.8811338	2.2867265
Avenue des Chalets	48.855803	2.2692843
Avenue des Chasseurs	48.8871554	2.3060833
Avenue des Gobelins	48.8349168	2.3531753
Avenue des Nations Unies	48.8608268	2.2911467
Avenue des Pavillons	48.8820007	2.2879995
Avenue des Peupliers	48.8492164	2.2628344
Avenue des Portugais	48.8711136	2.2938962
Avenue des Sycomores	48.8502153	2.2626205
Avenue des Ternes	48.8792599	2.2916221
Avenue des Terroirs de France	48.831785	2.3882578
Avenue des Tilleuls	48.8507744	2.2638009
Avenue des Tribunes	48.8277413	2.4290763
Avenue Despréaux	48.8444796	2.2628062
Avenue d'Eylau	48.8640993	2.2854605
Avenue d'Iéna	48.8678965	2.2953654
Avenue d'Italie	48.8249696	2.3576846
Avenue d'Ivry	48.8237739	2.3648137
Avenue Dode de la Brunerie	48.8362703	2.2573747
Avenue Dorian	48.8477086	2.3946816
Avenue du Bel air	48.8465232	2.3974277
Avenue du Cimetière des Batignolles	48.8956023	2.312496
Avenue du Colonel Bonnet	48.8551289	2.2787256
Avenue du Colonel Henri Rol-Tanguy	48.8339246	2.3321917
Avenue du Coq	48.8752146	2.329906
Avenue du Dr Arnold Netter	48.8442861	2.4056089
Avenue du Dr Brouardel	48.8552745	2.2957544
Avenue du Dr Gley	48.8770813	2.4107878
Avenue du Dr Lannelongue	48.8186598	2.330795
Avenue du Général Balfourier	48.8449445	2.2601307
Avenue du Général Clavery	48.8361617	2.2599349
Avenue du Général Détrie	48.8534171	2.2984333
Avenue du Général Dodds	48.8338077	2.4052178
Avenue du Général Dubail	48.8535864	2.271343
Avenue du Général Eisenhower	48.8673129	2.3120737
Avenue du Général Ferrié	48.8568044	2.296359
Avenue du Général Laperrine	48.8341646	2.4072247
Avenue du Général Leclerc	48.8296204	2.3284023
Avenue du Général Lemonnier	48.8622695	2.3310046
Avenue du Général Maistre	48.8248134	2.3151383
Avenue du Général Mangin	48.8544936	2.2813856
Avenue du Général Messimy	48.8374397	2.409689
Avenue du Général Michel Bizot	48.8357607	2.4022874
Avenue du Général San Martin	48.8782508	2.3795624
Avenue du Général Sarrail	48.8454267	2.2558953
Avenue du Général Tripier	48.8546366	2.296767
Avenue du Mahatma Gandhi	48.8759842	2.2624917
Avenue du Maine	48.8365864	2.3233673
Avenue du Maréchal Fayolle	48.8685746	2.2712625
Avenue du Maréchal Gallieni	48.8608788	2.3132305
Avenue du Maréchal Lyautey	48.8508554	2.2591537
Avenue du Maréchal Maunoury	48.8600242	2.2650535
Avenue du Nouveau Conservatoire	48.8889422	2.3899211
Avenue du Parc de Passy	48.8562109	2.2826794
Avenue du Parc des Princes	48.8410259	2.254579
Avenue du Père Lachaise	48.8638711	2.3976064
Avenue du Polygone	48.8375387	2.4317187
Avenue du Président Kennedy	48.8544689	2.2835067
Avenue du Président Wilson	48.8647398	2.2945192
Avenue du Ranelagh	48.8584484	2.2687638
Avenue du Recteur Poincaré	48.8525567	2.2726518
Avenue du Square	48.849897	2.2635982
Avenue du Tremblay	48.8329564	2.4564009
Avenue du Trône	48.848155	2.397673
Avenue Duquesne	48.8516649	2.3102008
Avenue Dutuit	48.8662053	2.3156865
Avenue Edison	48.8291886	2.3608804
Avenue Edward Tuck	48.8654652	2.3173244
Avenue Elisée Reclus	48.858236	2.2979822
Avenue Emile Acollas	48.8521949	2.3005625
Avenue Emile Bergerat	48.8524302	2.2715684
Avenue Emile Deschanel	48.8558666	2.3016831
Avenue Emile et Armand Massard	48.8879163	2.2958589
Avenue Emile Laurent	48.8409711	2.4111451
Avenue Emile Pouvillon	48.8575251	2.2990836
Avenue Emile Zola	48.8465491	2.2861126
Avenue Erlanger	48.8475484	2.2619792
Avenue Ernest Renan	48.8317021	2.2867202
Avenue Ernest Reyer	48.8229714	2.3215654
Avenue Félicien Rops	48.8192711	2.3532513
Avenue Félix Faure	48.8401087	2.2854339
Avenue Ferdinand Buisson	48.8367986	2.2536216
Avenue Ferdousi	48.8794864	2.3092377
Avenue Foch	48.8726896	2.2846359
Avenue François Fresneau	48.8343046	2.4085799
Avenue Franco-Russe	48.8602183	2.2996418
Avenue Franklin Delano Roosevelt	48.8691386	2.3101155
Avenue Frédéric le Play	48.8542446	2.3041812
Avenue Frochot	48.8814404	2.3381147
Avenue Gabriel	48.868358	2.316329
Avenue Gambetta	48.8685366	2.4016266
Avenue George V	48.8682365	2.301356
Avenue Georges Bernanos	48.8407195	2.3374376
Avenue Georges Lafenestre	48.8248202	2.3106184
Avenue Georges Lafont	48.836308	2.2559045
Avenue Georges Mandel	48.8636623	2.2817351
Avenue Georges Risler	48.8410899	2.2614706
Avenue Gordon Bennett	48.8467787	2.2511094
Avenue Gourgaud	48.8861766	2.2973806
Avenue Gustave Eiffel	48.8579619	2.2954187
Avenue Gustave V de Suède	48.8616494	2.2899844
Avenue Henri Martin	48.8640865	2.2728779
Avenue Hoche	48.8761254	2.3006686
Avenue Hussein Ier de Jordanie	48.8617161	2.2890442
Avenue Ibsen	48.8658223	2.4119839
Avenue Ingres	48.8573565	2.2675582
Avenue Jean Aicard	48.8652926	2.3810814
Avenue Jean Jaurès	48.8861009	2.3830765
Avenue Jean Moulin	48.8261904	2.3229937
Avenue Joseph Bédier	48.8207682	2.3735845
Avenue Joseph Bouvard	48.8564548	2.2981765
Avenue Jules Janin	48.8602905	2.2757115
Avenue Junot	48.8891575	2.3363497
Avenue Kléber	48.868469	2.2912361
Avenue Lamoricière	48.844982	2.4122424
Avenue Ledru-Rollin	48.8506597	2.3754554
Avenue Léon Bollée	48.817974	2.3620242
Avenue Léon Gaumont	48.8508686	2.4159155
Avenue Léon Heuzey	48.8477976	2.2713697
Avenue Léopold II	48.8523746	2.2714584
Avenue Louis Barthou	48.864782	2.2682877
Avenue Lucien Descaves	48.8172744	2.3322788
Avenue Mac-Mahon	48.8765018	2.2945644
Avenue Marc Sangnier	48.8258654	2.3077506
Avenue Marceau	48.8693327	2.2982887
Avenue Marcel Doret	48.8364559	2.2592126
Avenue Marcel Proust	48.8562109	2.2826794
Avenue Mathurin Moreau	48.8784171	2.3742777
Avenue Matignon	48.8705244	2.3127986
Avenue Maurice d'Ocagne	48.8245676	2.3143236
Avenue Maurice Ravel	48.8417265	2.4115802
Avenue Milleret de Brou	48.853768	2.2722553
Avenue Moderne	48.8836476	2.3822358
Avenue Molière	48.844468	2.2628984
Avenue Montaigne	48.867092	2.3062035
Avenue Mozart	48.8538353	2.2688984
Avenue Myron Herrick	48.8741725	2.3100602
Avenue Niel	48.8816547	2.2957552
Avenue Octave Gréard	48.8566797	2.2935503
Avenue Parmentier	48.8648998	2.3748658
Avenue Paul Adam	48.887499	2.2962457
Avenue Paul Appell	48.8215376	2.3274293
Avenue Paul Déroulède	48.8505157	2.299194
Avenue Paul Doumer	48.8602412	2.2810716
Avenue Percier	48.874889	2.3143854
Avenue Perrichont	48.8494634	2.2730626
Avenue Philippe-Auguste	48.8535623	2.3927014
Avenue Pierre 1er de Serbie	48.866343	2.2970496
Avenue Pierre de Coubertin	48.8176882	2.3441463
Avenue Pierre Loti	48.8552912	2.2987354
Avenue Pierre Masse	48.8175165	2.3339163
Avenue Pierre Mendès-France	48.8391529	2.3698735
Avenue Prudhon	48.8590082	2.2693481
Avenue Rachel	48.8852457	2.3309926
Avenue Raphaël	48.8595871	2.2681056
Avenue Rapp	48.8603266	2.3010148
Avenue Raymond Poincaré	48.8674166	2.2859093
Avenue Reille	48.8242687	2.3363874
Avenue René Boylesve	48.8562576	2.2845206
Avenue René Coty	48.8289339	2.3345419
Avenue René Fonck	48.8792747	2.4086772
Avenue Richerand	48.8722641	2.3661672
Avenue Robert Schuman	48.861734	2.308054
Avenue Rockefeller	48.8195712	2.3390577
Avenue Rodin	48.8636339	2.2750294
Avenue Ruysdaël	48.8779427	2.3100231
Avenue Sainte-Eugénie	48.8355935	2.2982397
Avenue Saint-Honoré d'Eylau	48.8675045	2.2866811
Avenue Secrétan	48.880877	2.374082
Avenue Silvestre de Sacy	48.8589225	2.2968472
Avenue Simon Bolivar	48.8763677	2.379148
Avenue Stéphane Mallarmé	48.886507	2.2928368
Avenue Stephen Pichon	48.8329504	2.3591397
Avenue Sully-Prudhomme	48.8617419	2.3083142
Avenue Taillade	48.8747763	2.3938128
Avenue Théodore Rousseau	48.8539684	2.2705998
Avenue Théophile Gautier	48.8499396	2.272278
Avenue Transversale	48.8382807	2.3259683
Avenue Trudaine	48.8811319	2.3425485
Avenue Van Dyck	48.878411	2.30616
Avenue Vavin	48.844225	2.3330288
Avenue Velasquez	48.880017	2.3131448
Avenue Victor Hugo	48.8688165	2.2833208
Avenue Victoria	48.8574926	2.348622
Avenue Villemain	48.8318677	2.3167324
Avenue Vincent d'Indy	48.8434458	2.4115874
Avenue Vion-Whitcomb	48.8565698	2.2699701
Avenue Winston Churchill	48.8659003	2.3138075
Avenue Yves du Manoir	48.8819055	2.2873258
Bd Sérurier	48.8881869	2.3958458
Belleville	48.8728179	2.389461
Bois de Boulogne	48.8624402	2.2491727
Boissière	48.8669301	2.2902115
Bonne-Nouvelle	48.8674501	2.3496033
Boulevard Adolphe Pinard	48.8239531	2.3069609
Boulevard Arago	48.8348527	2.3422859
Boulevard Auguste Blanqui	48.8301715	2.347658
Boulevard Barbès	48.8880788	2.3496578
Boulevard Beaumarchais	48.8569464	2.3682422
Boulevard Berthier	48.890011	2.3035677
Boulevard Bessières	48.8969965	2.3208
Boulevard Bourdon	48.8508978	2.3673174
Boulevard Brune	48.8254245	2.3153562
Boulevard Carnot	48.8440191	2.4130572
Boulevard d'Algérie	48.8810909	2.4000066
Boulevard Davout	48.8558837	2.4100816
Boulevard de Beauséjour	48.8573117	2.2693139
Boulevard de Belleville	48.8695726	2.3800091
Boulevard de Bercy	48.8399373	2.3824865
Boulevard de Bonne Nouvelle	48.870164	2.3505201
Boulevard de Charonne	48.8538085	2.3963025
Boulevard de Clichy	48.883254	2.3339645
Boulevard de Courcelles	48.8801952	2.3074469
Boulevard de Denain	48.8798685	2.3547182
Boulevard de Dixmude	48.883125	2.2847634
Boulevard de Grenelle	48.8502363	2.294618
Boulevard de la Bastille	48.8494373	2.3682727
Boulevard de la Chapelle	48.8841846	2.3573474
Boulevard de la Commanderie	48.9011551	2.3861824
Boulevard de la Guyane	48.8390016	2.4136774
Boulevard de la Madeleine	48.8696753	2.3264494
Boulevard de la Somme	48.8875953	2.2919693
Boulevard de la Tour-Maubourg	48.8580658	2.3100006
Boulevard de la Villette	48.878455	2.3704594
Boulevard de l'Amiral Bruix	48.8749021	2.2789108
Boulevard de l'Hôpital	48.8380444	2.3603869
Boulevard de l'Yser	48.8852176	2.288117
Boulevard de Magenta	48.876129	2.3562327
Boulevard de Ménilmontant	48.8631363	2.3870266
Boulevard de Montmorency	48.8517262	2.2623511
Boulevard de Picpus	48.8436776	2.4015978
Boulevard de Port-Royal	48.8379532	2.3442161
Boulevard de Reims	48.8899038	2.2981469
Boulevard de Reuilly	48.8394237	2.3946514
Boulevard de Rochechouart	48.882831	2.3446497
Boulevard de Sébastopol	48.8634101	2.3509564
Boulevard de Strasbourg	48.8731078	2.356387
Boulevard de Vaugirard	48.8414497	2.3178572
Boulevard Delessert	48.8589197	2.286431
Boulevard des Batignolles	48.8822408	2.3217382
Boulevard des Capucines	48.8704817	2.3312513
Boulevard des Filles du Calvaire	48.8615892	2.3670948
Boulevard des Invalides	48.852361	2.3145779
Boulevard des Italiens	48.8714859	2.3371311
Boulevard Diderot	48.8467809	2.381749
Boulevard d'Indochine	48.8860857	2.396509
Boulevard du Fort de Vaux	48.8923738	2.3025619
Boulevard du Général d'Armée Jean Simon	48.8254973	2.3812821
Boulevard du Général Martial Valin	48.8371645	2.274022
Boulevard du Montparnasse	48.8430905	2.3265248
Boulevard du Palais	48.8552363	2.3458468
Boulevard du Temple	48.8648664	2.3656742
Boulevard Edgar Quinet	48.8406453	2.3267932
Boulevard Emile Augier	48.8614015	2.2735998
Boulevard Exelmans	48.8424101	2.2618176
Boulevard Flandrin	48.8677757	2.2735509
Boulevard Garibaldi	48.8466543	2.3063603
Boulevard Gouvion-Saint-Cyr	48.8825404	2.2867273
Boulevard Haussmann	48.8743626	2.3227422
Boulevard Henri IV	48.8511849	2.3625962
Boulevard Jourdan	48.8212708	2.3347565
Boulevard Jules Ferry	48.8673488	2.3680865
Boulevard Jules Sandeau	48.8622521	2.2725349
Boulevard Kellermann	48.821052	2.3522842
Boulevard Lannes	48.8668671	2.2718282
Boulevard Lefebvre	48.8297569	2.2963033
Boulevard Macdonald	48.8989035	2.3825722
Boulevard Malesherbes	48.8798303	2.3138121
Boulevard Marbeau	48.8748268	2.2788384
Boulevard Masséna	48.8213725	2.3683562
Boulevard Montmartre	48.8717401	2.3416246
Boulevard Morland	48.8493218	2.3641998
Boulevard Mortier	48.8709749	2.4087004
Boulevard Murat	48.8433028	2.2565531
Boulevard Ney	48.8981541	2.3493482
Boulevard Ornano	48.8949368	2.3469828
Boulevard Pasteur	48.8420843	2.3135418
Boulevard Pereire	48.8845342	2.2967441
Boulevard Pershing	48.8805276	2.283755
Boulevard Poissonnière	48.8710599	2.3457384
Boulevard Poniatowski	48.83119	2.3961791
Boulevard Raspail	48.8455986	2.3286427
Boulevard Richard Lenoir	48.8597698	2.3718138
Boulevard Romain Rolland	48.8206733	2.3217151
Boulevard Saint-Denis	48.8698053	2.3526948
Boulevard Saint-Denis	48.8693295	2.3542482
Boulevard Saint-Germain	48.8534856	2.3346903
Boulevard Saint-Jacques	48.8328981	2.3377565
Boulevard Saint-Marcel	48.8384567	2.3569316
Boulevard Saint-Martin	48.8685	2.3588267
Boulevard Saint-Michel	48.8471939	2.3407723
Boulevard Soult	48.8412213	2.4092016
Boulevard Suchet	48.8554167	2.2634674
Boulevard Thierry de Martel	48.8767767	2.2799785
Boulevard Victor	48.8344094	2.2836776
Boulevard Vincent Auriol	48.834049	2.3649229
Boulevard Voltaire	48.8576715	2.3803565
Butte-aux-Cailles	48.8271912	2.3490795
Canal Saint-Martin	48.8650209	2.3672868
Carrefour de la Ferme-de-la-Faisanderie	48.8238261	2.4577216
Carrefour de la Patte d'Oie	48.8217501	2.4422217
Carrefour de la Pyramide	48.8338659	2.4452926
Carrefour de l'Odéon	48.852111	2.3386788
Carrefour de Longchamp	48.8644832	2.2379018
Carrefour des Cascades	48.858479	2.2579509
Carrefour des Tribunes	48.8615314	2.2295418
Charonne	48.8525023	2.4031934
Chaussée de la Muette	48.8582309	2.2725249
Chaussée-d'Antin	48.8728752	2.3303724
Chemin Baudin	48.8872225	2.3305342
Chemin Bourget	48.8613709	2.391011
Chemin de Ceinture du Lac Inférieur	48.8633852	2.2619208
Chemin de Ceinture du Lac Supérieur	48.8568485	2.2562933
Chemin de la Croix Catelan	48.8648592	2.2550346
Chemin de l'Abbaye	48.8664855	2.2339381
Chemin de Suresnes À Bagatelle	48.8678775	2.2388804
Chemin des Gravilliers	48.858689	2.2407655
Chemin des Pépinières	48.8564513	2.2276124
Chemin des Réservoirs	48.8596435	2.2399765
Chemin des Vieux Chênes	48.8527343	2.2511238
Chemin du Cimetière	48.8253268	2.4133073
Chemin du Clos de Paris, France	48.983679	2.3350137
Chemin du Parc de Charonne	48.8610737	2.4037747
Chemin du Pavillon d'Armenonville	48.8757245	2.2756293
Cité Adrienne	48.8586861	2.4012835
Cité Annibal	48.8271964	2.3322601
Cité Antoine Loubeyre	48.8710283	2.388603
Cité Aubry	48.8574301	2.3964255
Cité Bauer	48.8318567	2.3195418
Cité Beauharnais	48.8535937	2.3891872
Cité Bergère	48.8719679	2.3435672
Cité Berryer	48.8693743	2.3221531
Cité Bertrand	48.8640447	2.3817129
Cité Blanche	48.8294499	2.3081957
Cité Champagne	48.8535139	2.4044962
Cité Chaptal	48.8813989	2.3331129
Cité Charles Godon	48.8792737	2.3410143
Cité Condorcet	48.8795039	2.3449774
Cité d'Angoulême	48.866943	2.3745451
Cité d'Antin	48.8738255	2.3344211
Cité d'Austerlitz	48.842052	2.3625868
Cité de Chabrol	48.8764515	2.3538581
Cité de Crussol	48.8639149	2.3678078
Cité de la Chapelle	48.8872625	2.3581512
Cité de la Mairie	48.8847374	2.3404179
Cité de la Roquette	48.8552165	2.3737553
Cité de l'Alma	48.8608307	2.3022408
Cité de l'Ameublement	48.8515582	2.3856822
Cité de l'Avenir	48.8657707	2.3833295
Cité de l'Ermitage	48.8696344	2.3925179
Cité de Londres	48.8766589	2.3293233
Cité de Magenta	48.8715425	2.3592505
Cité de Phalsbourg	48.8556708	2.3852545
Cité de Port-Royal	48.8376358	2.3449442
Cité de Pusy	48.8878408	2.3109542
Cité de Trévise	48.8750319	2.3468456
Cité de Varenne	48.8538246	2.3215172
Cité Debergue	48.8458359	2.4042204
Cité des Fleurs	48.8926798	2.320351
Cité des Trois Bornes	48.8674468	2.3717433
Cité d'Hauteville	48.8767639	2.35213
Cité d'Orsel	48.8843123	2.3426356
Cité du Cardinal Lemoine	48.8487361	2.3530802
Cité du Couvent	48.854784	2.3838333
Cité du Général Négrier	48.8579065	2.3072778
Cité du Labyrinthe	48.8669345	2.3859462
Cité du Midi	48.883943	2.3359773
Cité du Palais Royal de Belleville	48.8764028	2.3905542
Cité du Rendez-Vous	48.8455112	2.4040929
Cité du Retiro	48.8692856	2.3213962
Cité du Wauxhall	48.8691728	2.3626912
Cité Dubourg	48.8626846	2.4011002
Cité Dupetit-Thouars	48.8658789	2.3621461
Cité Duplan	48.8757221	2.2848843
Cité Dupont	48.8627057	2.3804873
Cité Durmar	48.8667385	2.3817586
Cité Falaise	48.8966026	2.3342275
Cité Falguière	48.840715	2.3121181
Cité Fénelon	48.8788841	2.3420821
Cité Florentine	48.8786653	2.3883297
Cité Florentine Estrade	48.8471789	2.2680738
Cité Georges Ambroise Boisselat et Blanche	48.8536991	2.4089345
Cité Germain Pilon	48.8841103	2.3365222
Cité Griset	48.8667074	2.3788517
Cité Hermel	48.8905856	2.3441833
Cité Héron	48.8745656	2.3650165
Cité Hittorf	48.8716216	2.3588426
Cité Hiver	48.8799269	2.3771042
Cité Industrielle	48.8588558	2.3807744
Cité Jandelle	48.8754157	2.3801611
Cité Joly	48.8629332	2.3826469
Cité Joyeux	48.8968955	2.3232918
Cité Leclaire	48.8604407	2.4062136
Cité Lemercier	48.8868887	2.324312
Cité Lepage	48.880459	2.3711924
Cité Leroy	48.8707342	2.3927752
Cité Malesherbes	48.881039	2.3390901
Cité Marie	48.8960227	2.3187141
Cité Martignac	48.8567447	2.317948
Cité Monthiers	48.880944	2.3286489
Cité Montmartre	48.866036	2.3446035
Cité Morieux	48.8532405	2.2950886
Cité Moynet	48.843697	2.3863716
Cité Nicolas Poussin	48.8386179	2.3306975
Cité Nollez	48.8939688	2.3375763
Cité Odiot	48.8733697	2.3042266
Cité Paradis	48.8749731	2.3498414
Cité Parchappe	48.8531942	2.3718313
Cité Pigalle	48.8801511	2.3341627
Cité Pilleux	48.8886845	2.3271459
Cité Popincourt	48.8627506	2.3756091
Cité Pottier	48.8922582	2.3733434
Cité Prost	48.8522101	2.3859085
Cité Ribot	48.8672767	2.379912
Cité Riverin	48.8700255	2.3582397
Cité Rougemont	48.8717789	2.3452755
Cité Saint-Chaumont	48.8751878	2.375573
Cité Saint-Martin	48.8729254	2.3580747
Cité Souzy	48.8517978	2.3893542
Cité Stemler	48.8750204	2.3747324
Cité Thuré	48.8454666	2.2958645
Cité Vaneau	48.85431	2.3190004
Cité Véron	48.8845737	2.3321404
Cité Voltaire	48.8525344	2.3894462
Cour Bérard	48.854367	2.3658591
Cour d'Alsace-Lorraine	48.8459523	2.3900558
Cour Damoye	48.8538552	2.3701776
Cour de la Ferme Saint-Lazare	48.8762269	2.3547487
Cour de la Grâce de Dieu	48.8720651	2.3753312
Cour de la Métairie	48.8736376	2.3856859
Cour de l'Étoile d'Or	48.8519681	2.3746639
Cour de l'Industrie	48.8506388	2.387157
Cour de l'Ours	48.8517141	2.3755486
Cour de Rohan	48.8530254	2.3394666
Cour de Rome	48.8758411	2.3245164
Cour Debille	48.8566434	2.3792361
Cour des 3 Frères	48.852427	2.375432
Cour des Bretons	48.8713565	2.3733956
Cour du Bel air	48.8520501	2.373197
Cour du Cantal	48.8539203	2.3717305
Cour du Chêne Vert	48.8500229	2.3737209
Cour du Commerce Saint-André	48.853039	2.339085
Cour du Coq	48.8593731	2.3698674
Cour du Ginkgo	48.8403247	2.3809668
Cour du Havre	48.8757949	2.3261617
Cour du Levant	48.8320424	2.3905577
Cour du Liégat	48.8311049	2.3733592
Cour du Marché Saint-Antoine	48.848495	2.3757364
Cour du Minervois	48.8321226	2.3871543
Cour du Panier Fleuri	48.8532325	2.3742981
Cour du Saint-Esprit	48.8517193	2.3777219
Cour Jasmin	48.8522791	2.2664689
Cour Lesage	48.8731227	2.3812172
Cour Quellard	48.853791	2.3740107
Cour Saint-Emilion	48.8332109	2.3867096
Cour Saint-Joseph	48.852519	2.3736571
Cour Saint-Louis	48.8528142	2.3728034
Cour Saint-Nicolas	48.8507379	2.3884341
Cour Saint-Pierre	48.8870796	2.3254607
Cour Vendôme	48.8672946	2.3281862
Couronnes	48.869274	2.380155
Cours de Vincennes	48.8476123	2.4052773
Cours du 7ème art	48.8781517	2.3868329
Cours la Reine	48.8648402	2.3141279
Croulebarbe	48.8347839	2.3468998
Enfants-Rouges	48.8645161	2.3634163
Espl. du Port de l'Arsenal	48.8523159	2.3679718
Espl. du Souvenir Français	48.8525425	2.3122077
Espl. Henri France	48.8394736	2.2712667
Espl. Pierre Vidal-Naquet	48.8296581	2.3815152
Espl. Roger Linet	48.8678569	2.3778049
Espl. Saint-Louis	48.8398405	2.43468
Rue Fabert	48.8599152	2.3131693
Esplanade Jacques Chaban-Delmas	48.847286	2.311636
Esplanade Léo Hamon	48.836742	2.3512959
Esplanade Max Guedj	48.8408995	2.2793483
Faubourg-du-Roule	48.8746664	2.3038222
Fer à Cheval	48.864519	2.3229928
Gaillon	48.8696623	2.3336218
Galerie Colbert	48.8669707	2.3394572
Galerie de Beaujolais	48.8658844	2.3384698
Galerie de Chartres	48.8637217	2.3366073
Galerie de la Cour d'Honneur	48.8639159	2.336713
Galerie de la Madeleine	48.8698079	2.3223785
Galerie de la Villette	48.8923227	2.3883319
Galerie de Montpensier	48.8650989	2.3372521
Galerie de Nemours	48.8632158	2.3364183
Galerie de Valois	48.8649155	2.3383957
Galerie des Proues	48.8632992	2.3373745
Galerie des Variétés	48.8709014	2.3416515
Galerie d'Orléans	48.8638415	2.3374464
Galerie du Caire	48.8681457	2.3492347
Galerie du Jardin	48.8637701	2.3376478
Galerie du Théatre Français	48.8634045	2.3355839
Galerie Feydeau	48.8706604	2.3413364
Galerie Saint-Denis	48.8676577	2.3513018
Galerie Sainte-Foy	48.8680761	2.3499117
Galerie Saint-Marc	48.8705781	2.341975
Galerie Véro-Dodat	48.8628189	2.340235
Goutte d'Or	48.8887332	2.3555872
Grandes-Carrières	48.8904745	2.3318185
Grange aux Belles	48.8777753	2.3680402
Grenelle	48.8497552	2.2905737
Hameau Béranger	48.852618	2.2740835
Hameau d'Alleray	48.837923	2.302668
Hameau de Boulainvilliers	48.8538816	2.2743264
Hameau du Danube	48.8813907	2.3927587
Hameau la Fontaine	48.8525736	2.2752128
Hameau Michel-Ange	48.8403643	2.2598761
Île aux Cygnes	48.851667	2.281944
Île de la Cité	48.8548825	2.3474928
Île Saint-Louis	48.8515572	2.3574207
Impasse Alexandre Lécuyer	48.8976541	2.341148
Impasse Barrier	48.8478628	2.3797293
Impasse Basilide Fossard	48.8702077	2.4030962
Impasse Baudran	48.824151	2.3560289
Impasse Baudricourt	48.825432	2.3623838
Impasse Beaubourg	48.8621725	2.3534705
Impasse Berthaud	48.8613441	2.3540456
Impasse Bon Secours	48.8550921	2.3838368
Impasse Bonne Nouvelle	48.8704122	2.3505871
Impasse Bourdin	48.8676916	2.3057548
Impasse Bourgoin	48.8240523	2.3681109
Impasse Boursault	48.8829517	2.3206802
Impasse Boutron	48.877007	2.362315
Impasse Calmels	48.894306	2.3388378
Impasse Canart	48.8460522	2.4085693
Impasse Carrière-Mainguet	48.8568131	2.3881314
Impasse Cels	48.8364467	2.3247741
Impasse Chandon	48.838711	2.287694
Impasse Charles Petit	48.8512516	2.3845013
Impasse Chartière	48.848299	2.3461038
Impasse Chausson	48.8754432	2.3666251
Impasse Clisson	48.8314036	2.3676429
Impasse Cordon-Boussard	48.8658264	2.3977677
Impasse Corneille	48.8448017	2.2626437
Impasse Crozatier	48.8483636	2.3794619
Impasse Damesme	48.8224476	2.3558977
Impasse d'Amsterdam	48.8777735	2.3266478
Impasse d'Antin	48.8671959	2.308845
Impasse Dany	48.8779614	2.3206972
Impasse Daunay	48.860445	2.3876495
Impasse de Bergame	48.8536771	2.3992821
Impasse de Casteggio	48.8542766	2.3985465
Impasse de Conti	48.8570706	2.3382374
Impasse de Joinville	48.8911232	2.3782897
Impasse de la Baleine	48.8673762	2.3775423
Impasse de la Boule Rouge	48.8735538	2.34383
Impasse de la Chapelle	48.8926906	2.3590811
Impasse de la Confiance	48.8534957	2.3996404
Impasse de la Défense	48.8851986	2.3269848
Impasse de la Grosse Bouteille	48.8952778	2.3398242
Impasse de la Jonquière	48.8948215	2.3163156
Impasse de la Mare	48.8695626	2.3888973
Impasse de la Planchette	48.8683842	2.3552684
Impasse de la Poissonnerie	48.8557288	2.3634454
Impasse de la Santé	48.8368297	2.3418909
Impasse de la Tour d'Auvergne	48.87977	2.3424127
Impasse de l'Enfant Jésus	48.8448334	2.3145734
Impasse de Lévis	48.882528	2.315521
Impasse de l'Hôtel d'Argenson	48.8569039	2.3570292
Impasse de l'Île de France	48.8559158	2.3986419
Impasse de Malakoff	48.8765964	2.2828849
Impasse de Mont-Louis	48.8581665	2.3881379
Impasse de Nevers	48.8553718	2.338663
Impasse de Presles	48.852363	2.2961889
Impasse de Valmy	48.8571531	2.3267545
Impasse de Wattignies	48.8346516	2.3993721
Impasse Delaunay	48.8552959	2.3859302
Impasse Deligny	48.896548	2.3228732
Impasse des 12 Maisons	48.8659155	2.3032021
Impasse des 2 Anges	48.8552986	2.332895
Impasse des 2 Cousins	48.8850647	2.2938148
Impasse des Anglais	48.8892942	2.3752687
Impasse des Arbalétriers	48.8584501	2.35946
Impasse des Arts	48.8472076	2.3978588
Impasse des Belles Feuilles	48.868794	2.2807179
Impasse des Bourdonnais	48.8605544	2.3449333
Impasse des Carrières	48.8582034	2.2815566
Impasse des Chevaliers	48.8723043	2.3963357
Impasse des Crins	48.8538893	2.3991441
Impasse des Jardiniers	48.852224	2.3923077
Impasse des Orteaux	48.8566414	2.3990124
Impasse des Panoyaux	48.8663603	2.3848923
Impasse des Peintres	48.8639959	2.3500935
Impasse des Prêtres	48.8652784	2.2835105
Impasse des Primevères	48.8590397	2.3702605
Impasse des Rigaunes	48.8761472	2.3981289
Impasse des Souhaits	48.8541896	2.3991847
Impasse des Vignoles	48.8557658	2.4021379
Impasse Dombasle	48.8354082	2.3020396
Impasse Druinot	48.8498312	2.3810418
Impasse du Bureau	48.8533493	2.3942066
Impasse du Cadran	48.8836949	2.3454877
Impasse du Commerce	48.8457421	2.2938203
Impasse du Crédit Lyonnais	48.8201073	2.3444107
Impasse du Dr Jacques Bertillon	48.8671542	2.3002864
Impasse du Gué	48.8971244	2.3591533
Impasse du Labrador	48.8293671	2.3028395
Impasse du Marché aux Chevaux	48.8388012	2.3569214
Impasse du Maroc	48.8869234	2.3690977
Impasse du Moulin Vert	48.8292831	2.3239922
Impasse du Pèlerin	48.8947469	2.3165024
Impasse du Petit Modèle	48.8329504	2.3591397
Impasse du Pilier	48.8588154	2.3901957
Impasse du Rouet	48.827687	2.325518
Impasse du Talus	48.8962027	2.3323602
Impasse du Tertre	48.8869424	2.3402264
Impasse Dupuy	48.888365	2.3613103
Impasse Erard	48.8457853	2.384314
Impasse Eveillard	48.8646911	2.4036333
Impasse Fortin	48.8728425	2.306838
Impasse Franchemont	48.8534609	2.3838597
Impasse Girardon	48.8879916	2.3370246
Impasse Gomboust	48.8675988	2.3316443
Impasse Grimaud	48.881977	2.3890887
Impasse Grisel	48.8478553	2.3031648
Impasse Gros	48.8558816	2.4040474
Impasse Guéménée	48.854367	2.3658591
Impasse Hautefeuille	48.8524975	2.3429857
Impasse Haxo	48.8680718	2.4075591
Impasse Jean Beausire	48.855153	2.3680803
Impasse Lamier	48.8582729	2.3886848
Impasse Léa Blain	48.8519312	2.2611761
Impasse Lebouis	48.8368118	2.3217984
Impasse Léger	48.8853647	2.3096353
Impasse Letort	48.8954714	2.3435415
Impasse Louis Robert	48.8701321	2.3920505
Impasse Louvat	48.8335245	2.3272042
Impasse Marie Blanche	48.8857124	2.3327558
Impasse Marie de Régnier	48.8568029	2.2842872
Impasse Marteau	48.9015921	2.3596681
Impasse Martini	48.8700866	2.3556971
Impasse Marty	48.896914	2.3252408
Impasse Massonnet	48.8953895	2.3516523
Impasse Mathieu	48.8412199	2.3130046
Impasse Maubert	48.8512196	2.3492225
Impasse Milord	48.8966179	2.328659
Impasse Molin	48.8906027	2.3639169
Impasse Morlet	48.8514044	2.395415
Impasse Mousset	48.845828	2.3917449
Impasse Naboulet	48.8943931	2.32116
Impasse Nansouty	48.8217206	2.3343842
Impasse nationale	48.8253658	2.367779
Impasse Onfroy	48.8243857	2.3562103
Impasse Orfila	48.8660718	2.3959011
Impasse Oudinot	48.8505196	2.3198639
Impasse Paul-Louis Courier	48.8562145	2.324684
Impasse Pers	48.8898122	2.3457779
Impasse Petin	48.8777764	2.3988884
Impasse Piver	48.8702042	2.3747674
Impasse Pixérécourt	48.8729084	2.3952302
Impasse Popincourt	48.8591855	2.3770962
Impasse Poule	48.8532647	2.3993242
Impasse Putigneux	48.854959	2.355797
Impasse Questre	48.8682569	2.3813758
Impasse Racine	48.8435074	2.2621943
Impasse Raffet	48.8513964	2.2651289
Impasse Rançon	48.8556741	2.4028343
Impasse Raymond Queneau	48.8958549	2.3617269
Impasse Reille	48.8261915	2.3396117
Impasse Robert	48.8951904	2.3387508
Impasse Robiquet	48.8442467	2.3259105
Impasse Rolleboise	48.8535074	2.3989315
Impasse Ronsin	48.8443358	2.3141546
Impasse Rothschild	48.8883651	2.3259082
Impasse Royer-Collard	48.8454054	2.3406863
Impasse Saint-Alphonse	48.8232818	2.3268409
Impasse Saint-Claude	48.8605263	2.3657181
Impasse Saint-Denis	48.8655602	2.3501032
Impasse Sainte-Henriette	48.8967138	2.3434035
Impasse Sainte-Marthe	48.8741632	2.3723431
Impasse Sainte-Monique	48.8953605	2.3293412
Impasse Saint-Eustache	48.8638522	2.3456466
Impasse Saint-François	48.8965898	2.343857
Impasse Saint-Ouen	48.8938158	2.3271038
Impasse Saint-Paul	48.8560354	2.403801
Impasse Saint-Pierre	48.8548333	2.3998587
Impasse Saint-Sébastien	48.861234	2.3712353
Impasse Saint-Vincent	48.8779456	2.3851374
Impasse Salembrière	48.8528005	2.3465383
Impasse Satan	48.8561404	2.402629
Impasse Suez	48.8585068	2.3999533
Impasse Tourneux	48.8374246	2.3980926
Impasse Truillot	48.8603423	2.3745822
Impasse Vandal	48.8273766	2.3078349
Impasse Vassou	48.846362	2.4078817
Impasse Voltaire	48.8435486	2.2621328
Rue des Dardanelles	48.8779112	2.2844059
Notre-Dame-des-Champs	48.8477427	2.328309
Rue du Pressoir	48.8689081	2.3821572
Passage Abel Leblanc	48.846306	2.3821068
Passage Alexandre	48.8403773	2.3154117
Passage Alexandrine	48.8562336	2.388293
Passage Alfred Stevens	48.8820068	2.3387122
Passage Antoine Carême	48.8608482	2.3458015
Passage Barrault	48.828634	2.3486762
Passage Basfour	48.8661564	2.3514625
Passage Basfroi	48.8555933	2.3783573
Passage Beaufils	48.8525363	2.4051445
Passage Berzélius	48.8953579	2.3204787
Passage Beslay	48.8633921	2.3741248
Passage Binder	48.8843036	2.3825498
Passage Boiton	48.8277784	2.3502415
Passage Boudin	48.8689877	2.4069037
Passage Boulay	48.8956295	2.3175908
Passage Bourgoin	48.8248617	2.3699443
Passage Brady	48.8712111	2.3553318
Passage Briare	48.8771294	2.3431178
Passage Briquet	48.8835044	2.344877
Passage Brunoy	48.845067	2.3777992
Passage Bullourde	48.8547258	2.3770311
Passage Cardinet	48.886654	2.3121724
Passage Championnet	48.8955372	2.3475415
Passage Chanvin	48.8321435	2.3712187
Passage Charlemagne	48.8551491	2.3606944
Passage Charles Albert	48.8966264	2.3316905
Passage Charles Dallery	48.8549658	2.3778534
Passage Chaussin	48.8392654	2.401571
Passage Choiseul	48.8680834	2.3355673
Passage Colbert	48.866395	2.3391446
Passage Collin	48.8826022	2.3359957
Passage Cottin	48.8877993	2.3461871
Passage Courtois	48.8569543	2.3869589
Passage Dagorno	48.8554182	2.4048161
Passage Dareau	48.8307701	2.3354876
Passage Daunay	48.8952452	2.3288635
Passage Dauphine	48.8548556	2.3385994
Passage de Abbesses	48.8851304	2.3381907
Passage de Beaujolais	48.8663702	2.3374599
Passage de Clichy	48.8849499	2.3289845
Passage de Crimée	48.892751	2.3734504
Passage de Dantzig	48.832005	2.2967433
Passage de Flandre	48.886861	2.3741204
Passage de Gergovie	48.834539	2.3133093
Passage de la Bonne Graine	48.8515895	2.3769188
Passage de la Boule Blanche	48.8519352	2.3727642
Passage de la Brie	48.8807546	2.3725574
Passage de la Duée	48.8713463	2.396014
Passage de la Ferme Saint-Lazare	48.8763897	2.3554152
Passage de la Folie-Regnault	48.8609816	2.3882195
Passage de la Fonderie	48.8663789	2.3759337
Passage de la Hutte aux Gardes	48.8912509	2.3027676
Passage de la Madeleine	48.8710084	2.3233538
Passage de la Main d'Or	48.8519514	2.3780034
Passage de la Moselle	48.884596	2.3771112
Passage de la Petite Boucherie	48.8535796	2.3355651
Passage de la Petite Voirie	48.8644016	2.3741247
Passage de la Providence	48.8539356	2.4038054
Passage de la Tour de Vanves	48.8346792	2.3233907
Passage de la Trinité	48.8658121	2.3512331
Passage de la Vierge	48.8557474	2.306273
Passage de la Visitation	48.8565763	2.3236605
Passage de la Voûte	48.8469649	2.408582
Passage de Lagny	48.849809	2.4090729
Passage de l'Ancre	48.8643855	2.3525856
Passage de l'Asile	48.8596802	2.3751936
Passage de l'Atlas	48.8751156	2.376602
Passage de l'Horloge À Automates	48.862317	2.352406
Passage de l'Industrie	48.8712991	2.3542046
Passage de l'Union	48.8573044	2.3047792
Passage de l'Yonne	48.8324827	2.3857157
Passage de Melun	48.8841541	2.3760716
Passage de Ménilmontant	48.8650921	2.3826828
Passage de Montpensier	48.8641852	2.3364751
Passage de Pékin	48.8712203	2.3830885
Passage de Richelieu	48.8646799	2.3365915
Passage de Thionville	48.8884604	2.3816953
Passage de Verdun	48.8876965	2.3814377
Passage Delanos	48.8779802	2.3578675
Passage Delessert	48.8792238	2.3649023
Passage d'Enfer	48.8387075	2.3316485
Passage Depaquit	48.8878205	2.333949
Passage des 2 Pavillons	48.8661284	2.3390299
Passage des 2 Portes	48.8590565	2.4050018
Passage des Acacias	48.8780437	2.2937156
Passage des Arts	48.8354245	2.3213606
Passage des Charbonniers	48.8450941	2.3097931
Passage des Cloÿs	48.8920355	2.3363928
Passage des Crayons	48.8304103	2.3750568
Passage des Entrepreneurs	48.8443313	2.292636
Passage des Epinettes	48.8429461	2.3253068
Passage des Fours À Chaux	48.8794441	2.3740273
Passage des Gravilliers	48.8637321	2.3570891
Passage des Jacobins	48.8670183	2.331796
Place du Marché Saint-Honoré	48.867037	2.331807
Passage des Marais	48.8716708	2.3614618
Passage des Mauxins	48.8775147	2.4044487
Passage des Patriarches	48.8411431	2.3500982
Passage des Petits Pères	48.8665139	2.340177
Passage des Postes	48.8410629	2.3490495
Passage des Princes	48.8717253	2.3391959
Passage des Pruniers	48.865015	2.3909968
Passage des Récollets	48.8740383	2.3595665
Passage des Rondeaux	48.8650094	2.3962001
Passage des Saint-Simoniens	48.8709929	2.3969382
Passage des Soupirs	48.8688096	2.3964801
Passage des Taillandiers	48.8539066	2.3748664
Passage des Tourelles	48.875151	2.4046248
Passage Desgrais	48.8915618	2.373365
Passage d'Eupatoria	48.8690621	2.3871369
Passage Dieu	48.8560354	2.403801
Passage Doisy	48.878231	2.2920426
Passage Dombasle	48.8365798	2.3010518
Passage Driancourt	48.8494093	2.3796173
Passage du Bourg l'Abbé	48.8645427	2.3506951
Passage du Buisson Saint-Louis	48.8723379	2.3734545
Passage du Bureau	48.8545783	2.3940504
Passage du Caire	48.8679821	2.3499482
Passage du Champ au Loup	48.8965991	2.3313501
Passage du Champ Marie	48.8962849	2.3371684
Passage du Chantier	48.8514558	2.3734279
Passage du Charolais	48.8407686	2.3869855
Passage du Chemin Vert	48.8595674	2.3747323
Passage du Cheval Blanc	48.8533218	2.3711557
Passage du Clos Bruneau	48.8487137	2.3473796
Passage du Commandant Charles Martel	48.8846599	2.3178577
Passage du Génie	48.8484993	2.3894146
Passage du Grand Cerf	48.8649679	2.3485014
Passage du Guesclin	48.8520765	2.297071
Passage du Jeu de Boules	48.865572	2.367078
Passage du Marché	48.8711904	2.356853
Passage du Maure	48.8618563	2.3533862
Passage du Mont Cenis	48.8973456	2.3451292
Passage du Moulin des Prés	48.8290416	2.3530733
Passage du Moulinet	48.826568	2.3539215
Passage du Perron	48.8650734	2.3380179
Passage du Plateau	48.8781318	2.3849291
Passage du Ponceau	48.867583	2.3524522
Passage du Pont aux Biches	48.8677667	2.3586615
Passage du Poteau	48.8974007	2.3368588
Passage du Prado	48.869952	2.3537929
Passage du Retrait	48.8692304	2.3939724
Passage du Roi d'Alger	48.8955372	2.3475415
Passage du Ruisseau de Ménilmontant	48.8686433	2.3933273
Passage du Surmelin	48.8699452	2.4055327
Passage du Télégraphe	48.8741581	2.3983568
Passage du Trône	48.8494091	2.3983836
Passage Dubail	48.8738425	2.3595055
Passage Dubois	48.8848807	2.3825966
Passage Dubuffet	48.8331577	2.3885896
Passage Dudouy	48.862627	2.3809283
Passage Duhesme	48.8960106	2.3476071
Passage Dumas	48.8523168	2.3912197
Passage Duris	48.8643045	2.3887123
Passage Eugène Beaudouin	48.8539184	2.2670413
Passage Fermat	48.8368985	2.3244731
Passage Flourens	48.8973251	2.3268088
Passage Foubert	48.8252491	2.3529329
Passage Gambetta	48.8727359	2.4016495
Passage Ganneron	48.8901594	2.3264842
Passage Gatbois	48.8447169	2.3795922
Passage Gauthier	48.8754493	2.3810245
Passage Geffroy-Didelot	48.8826842	2.3169828
Passage Goix	48.8848726	2.3662904
Passage Guénot	48.851792	2.391238
Passage Guilhem	48.8619821	2.3798237
Passage Gustave Lepeu	48.8564676	2.3882066
Passage Hébrard	48.8731147	2.3729267
Passage Hennel	48.8454045	2.3800413
Passage Henri Gaillard	48.8717444	2.2755381
Passage Jaillot	48.843434	2.3508582
Passage Jean Beausire	48.854286	2.3677977
Passage Jean Nicot	48.8589506	2.3078715
Passage Joanès	48.8285439	2.3169129
Passage Josseaume	48.8548827	2.4026732
Passage Josset	48.8526468	2.3765766
Passage Jouffroy	48.8725837	2.3422199
Passage Kracher	48.8949547	2.3488261
Passage Landrieu	48.8602512	2.3036608
Passage Lathuille	48.8849341	2.3277589
Passage Legendre	48.8917102	2.3267024
Passage Lemoine	48.868507	2.3531271
Passage Lepic	48.8846695	2.3341137
Passage Lhomme	48.8532125	2.3753451
Passage Lisa	48.8585101	2.3775803
Passage Louis-Philippe	48.8539623	2.3729142
Passage Maigrot-Delaunay	48.8507451	2.4008419
Passage Maurel	48.842698	2.3630594
Passage Meslay	48.8683155	2.3592168
Passage Molière	48.8624074	2.3512082
Passage Moncey	48.8900797	2.3253449
Passage Monplaisir	48.8655623	2.3856177
Passage Montbrun	48.8288664	2.3293914
Passage Montgallet	48.8440495	2.3877755
Passage Nafissa Sid Cara	48.8790924	2.4089928
Passage national	48.8236113	2.3690858
Passage Olivier de Serres	48.8358421	2.2965891
Passage Ormeaux-Grands Champs	48.8510901	2.4005984
Passage Penel	48.8960803	2.3423799
Passage Perreur	48.8680494	2.4046004
Passage Petit Cerf	48.8937956	2.3169738
Passage Philippe-Auguste	48.851934	2.3937332
Passage Piat	48.8707251	2.3871713
Passage Piver	48.8704618	2.3745654
Passage Planchard	48.8707446	2.4017587
Passage Plantin	48.8711795	2.3884046
Passage Poncelet	48.8797312	2.2977974
Passage Potier	48.8650602	2.3367103
Passage Pouchet	48.8962675	2.3222333
Passage Puteaux	48.8730512	2.3235837
Passage Raguinot	48.8449484	2.3786451
Passage Ramey	48.8898803	2.3468229
Passage Rauch	48.8542597	2.3798738
Passage Reilhac	48.8717966	2.3553536
Passage Ribet	48.8460804	2.3000334
Passage Richelieu	48.8619034	2.3363797
Passage Rimbaut	48.8295387	2.326949
Passage Rochebrune	48.8619821	2.3798237
Passage Roux	48.8813994	2.2977807
Passage Ruelle	48.8867094	2.3583602
Passage Saint-Ambroise	48.8632793	2.3774353
Passage Saint-Ange	48.8963754	2.3277335
Passage Saint-Antoine	48.8531168	2.3763967
Passage Saint-Bernard	48.851337	2.37984
Passage Sainte-Anne	48.8680834	2.3355673
Passage Sainte-Anne Popincourt	48.8583172	2.370058
Passage Sainte-Elisabeth	48.8663112	2.3604732
Passage Saint-Emilion	48.8332109	2.3867096
Passage Saint-Jules	48.8970646	2.336369
Passage Saint-Maur	48.8635342	2.3779701
Passage Saint-Michel	48.888786	2.3252242
Passage Saint-Paul	48.8545644	2.3616466
Passage Saint-Philippe du Roule	48.8734419	2.3108845
Passage Saint-Pierre Amelot	48.8626303	2.3696919
Passage Saint-Roch	48.8653716	2.3329732
Passage Saint-Sabin	48.8554958	2.372448
Passage Saint-Sébastien	48.8617954	2.3697192
Passage Saint-Vivant	48.83284	2.3861962
Passage Salarnier	48.8569972	2.3736911
Passage Savart	48.8550057	2.4034887
Passage Sécurité	48.8490211	2.2963278
Passage Sigaud	48.8280479	2.3481685
Passage Singer	48.8563232	2.2757833
Passage Stendhal	48.8616321	2.4009125
Passage Stinville	48.8442433	2.3882775
Passage Tenaille	48.8338594	2.325116
Passage Thiéré	48.853845	2.3740849
Passage Tourlaque	48.8882879	2.3332622
Passage Trubert-Bellier	48.8244668	2.3511427
Passage Turquetil	48.8513358	2.3927603
Passage Vallet	48.8332871	2.3599788
Passage Vandrezanne	48.82719	2.353617
Passage Vendôme	48.8663143	2.3641306
Passage Verdeau	48.8732479	2.3422809
Passage Vérité	48.8632613	2.3381401
Passage Viallet	48.8566861	2.3820051
Passage Victor Marchand	48.8288024	2.3422089
Passage Wattieaux	48.8939801	2.3753844
Place Adolphe Chérioux	48.8402131	2.3003371
Place Adolphe Max	48.8831049	2.3301836
Place Albert Cohen	48.8396332	2.2727612
Place Albert Kahn	48.8957007	2.3463397
Place Albert Londres	48.824254	2.362969
Place Alfred Kastler	48.8420896	2.3459607
Place Alfred Sauvy	48.8530215	2.293226
Place Alphonse Allais	48.8706398	2.3821267
Place Alphonse Laveran	48.8408565	2.340986
Place André Honnorat	48.8445448	2.3372532
Place André Malraux	48.8639731	2.3353367
Place André Tardieu	48.8513849	2.3143744
Place André-Masson	48.8276649	2.3547784
Place Armand Carrel	48.8827418	2.3823142
Place Arnault Tzanck	48.898723	2.3232871
Place Augusta Holmes	48.8391984	2.3709409
Place Auguste Baron	48.9001248	2.3881648
Place Auguste Métivier	48.8630835	2.3880477
Place Balard	48.8364637	2.2784898
Place Basse	48.8870584	2.2889997
Place Baudoyer	48.8561517	2.3553877
Place Beauvau	48.8712649	2.3164174
Place Benjamin Fondane	48.8445293	2.352127
Place Bienvenüe	48.8426584	2.320507
Place Blanche	48.8836489	2.332649
Place Boieldieu	48.8708171	2.3374436
Place Boulnois	48.879288	2.295976
Place Cambronne	48.8480195	2.3014983
Place Camille Claudel	48.8445782	2.3178722
Place Casadesus	48.8886089	2.3374315
Place Charles Bernard	48.8935862	2.3430079
Place Charles de Gaulle	48.8741476	2.2945263
Place Charles Dullin	48.8833757	2.342759
Place Charles Fillion	48.887861	2.3169398
Place Charles Michels	48.8468081	2.2857078
Place Charles Vallin	48.8355876	2.3024213
Place Claude Bourdet	48.8328544	2.3470473
Place Clemenceau	48.8673915	2.3145565
Place Clément Ader	48.851375	2.2784251
Place Coluche	48.8262268	2.3418825
Place Constantin Pecqueur	48.889307	2.3379531
Place Dalida	48.888531	2.338071
Place d'Aligre	48.8491798	2.3782777
Place d'Alleray	48.8364276	2.3064498
Place d'Andorre	48.856451	2.274702
Place d'Anvers	48.8824567	2.3446943
Place de Barcelone	48.8476014	2.2735398
Place de Bitche	48.8893501	2.3790391
Place de Bolivie	48.8545438	2.2835912
Place de Brazzaville	48.851284	2.2857733
Place de Breteuil	48.8470924	2.3119837
Place de Budapest	48.8771811	2.3273001
Place de Catalogne	48.8369826	2.3186143
Place de Clichy	48.8835411	2.3268816
Place de Colombie	48.8630065	2.2679205
Place de Finlande	48.8624357	2.3113955
Place de Fontenoy	48.850806	2.3062317
Place de Joinville	48.8896856	2.3796977
Place de l’Europe - Simone Veil	48.8788966	2.3232728
Place de la Bastille	48.8531827	2.3691443
Place de la Bataille de Stalingrad	48.8833167	2.3693137
Place de la Bergère d'Ivry	48.8309723	2.3484053
Place de la Bourse	48.8686639	2.3413443
Place de la Chapelle	48.8845241	2.3594023
Place de la Concorde	48.8655759	2.3206268
Place de la Contrescarpe	48.844463	2.3492663
Place de la Fontaine aux Lions	48.889773	2.392844
Place de la Fontaine Timbaud	48.8661784	2.3714231
Place de la Garenne	48.8335511	2.3198893
Place de la Madeleine	48.8700777	2.324007
Place de la Montagne du Goulet	48.8442992	2.2776998
Place de la Nation	48.8478958	2.3959848
Place de la Nation	48.8483899	2.3959213
Place de la Porte d'Auteuil	48.8481038	2.2580117
Place de la Porte de Bagnolet	48.8644908	2.4094039
Place de la Porte de Champerret	48.8858535	2.2904974
Place de la Porte de Châtillon	48.8242491	2.3187411
Place de la Porte de Montreuil	48.8541741	2.4146397
Place de la Porte de Pantin	48.8891345	2.3956845
Place de la Porte de Paris	48.928564	2.3565104
Place de la Porte de Passy	48.8576239	2.2637683
Place de la Porte de Saint-Cloud	48.8381245	2.2575154
Place de la Porte de Vanves	48.8273081	2.3048372
Place de la Porte de Versailles	48.8329784	2.2870259
Place de la Porte Maillot	48.8784318	2.2829139
Place de la Porte Molitor	48.8454201	2.2563634
Place de la Reine Astrid	48.8650478	2.3032266
Place de la République	48.8676635	2.3640304
Place de la République	48.8673936	2.3634144
Place de la République de Panama	48.8463824	2.3087085
Place de la République Dominicaine	48.8804679	2.309092
Place de la Résistance	48.8622321	2.3019583
Place de la Sorbonne	48.8485765	2.3421943
Place de l'Abbé Georges Hénocque	48.8236773	2.3531248
Place de l'Abbé Jean Lebeuf	48.8361974	2.3187509
Place de l'Adjudant Vincenot	48.8707075	2.408378
Place de l'Alma	48.8646975	2.3013862
Place de l'Amiral de Grasse	48.8677201	2.2954142
Place de l'École Militaire	48.8542057	2.3058414
Place de l'Edit de Nantes	48.8889784	2.3782744
Place de l'Église d'Auteuil	48.8474187	2.2688317
Place de l'Église de l'Assomption	48.8558188	2.2662177
Place de l'Estrapade	48.8452061	2.3451192
Place de l'Hôtel de Ville	48.8567682	2.3510678
Place de l'Île de la Réunion	48.8479363	2.399191
Place de l'Île de Sein	48.8341642	2.3363981
Place de l'Institut	48.8575072	2.3368217
Place de l'Odéon	48.8500115	2.3387178
Place de l'Uruguay	48.8698322	2.2958921
Place de Ménilmontant	48.8685299	2.3880899
Place de Mexico	48.8654444	2.2831736
Place de Moro-Giafferi	48.834152	2.3217797
Place de Narvik	48.8765438	2.312775
Place de Passy	48.857796	2.2775381
Place de Port-au-Prince	48.8189023	2.3654619
Place de Rhin et Danube	48.881922	2.3930904
Place de Roubaix	48.8804933	2.3523746
Place de Rungis	48.8222271	2.3467853
Place de Séoul	48.8363286	2.3184883
Place de Thorigny	48.8590586	2.3621799
Place de Valois	48.8632613	2.3381401
Place de Varsovie	48.8603798	2.2912314
Place de Vénétie	48.8213611	2.3642219
Place de Verdun	48.8790181	2.2804337
Place de Wagram	48.8872764	2.3050111
Place Denfert-Rochereau	48.8342686	2.3323094
Place Denys Cochin	48.8538605	2.3102654
Place des 44 Enfants d'Izieu	48.8215206	2.3563303
Place des Abbesses	48.8843091	2.3387397
Place des Alpes	48.832121	2.3586097
Place des Antilles	48.8487788	2.3987907
Place des Cinq Martyrs du Lycée Buffon	48.8384594	2.3171491
Place des Combattants en Afrique du Nord	48.8456785	2.3724222
Place des Droits de l'Enfant	48.8277272	2.3323243
Place des États-Unis	48.8678463	2.2938616
Place des Fêtes	48.8766446	2.3938289
Place des Grandes Rigoles	48.873626	2.3899409
Place des Grès	48.859072	2.4059825
Place des Insurgés de Varsovie	48.8275051	2.2929313
Place des Petits Pères	48.8664453	2.3405841
Place des Pyramides	48.8639204	2.3321459
Place des Saussaies	48.8719434	2.3186389
Place des Ternes	48.8779478	2.2983465
Place des Victoires	48.865896	2.3413396
Place des Vins de France	48.8324931	2.3877055
Place des Vosges	48.8561846	2.3657745
Place d'Estienne d'Orves	48.8765751	2.3317327
Place Diaghilev	48.8731533	2.3311534
Place d'Iéna	48.8643493	2.2934393
Place d'Israël	48.8853082	2.3033228
Place d'Italie	48.8318967	2.3558043
Place Django Reinhardt	48.9001528	2.343694
Place Docteur Navarre	48.8278934	2.3662039
Place du 18 Juin 1940	48.8441131	2.3238411
Place du 19 Mars 1962	48.8470549	2.3754952
Place du 25 Août 1944	48.8226939	2.3255286
Place du Brésil	48.884251	2.3026962
Place du Caire	48.8681327	2.3487095
Place du Calvaire	48.8862569	2.3401663
Place du Canada	48.8649221	2.3103194
Place du Cardinal Amette	48.8508261	2.2964022
Place du Cardinal Lavigerie	48.8328547	2.4030323
Place du Carrousel	48.8618373	2.3345317
Place du Chancelier Adenauer	48.8711144	2.2792347
Place du Château Rouge	48.8874481	2.3497784
Place du Châtelet	48.8580021	2.3472427
Place du Colonel Bourgoin	48.8449842	2.3831169
Place du Colonel Fabien	48.8780382	2.3698593
Place du Commerce	48.8448943	2.2927815
Place du Comtat Venaissin	48.8414426	2.2913494
Place du Costa Rica	48.8585719	2.2845588
Place du Dr Félix Lobligeois	48.8864607	2.3181836
Place du Dr Hayem	48.8529729	2.2758363
Place du Dr Paul Michaux	48.8386222	2.2553675
Place du Dr Yersin	48.8202862	2.3726419
Place du Général Beuret	48.8418416	2.3032536
Place du Général Brocard	48.8781616	2.3052512
Place du Général Catroux	48.8822264	2.3102798
Place du Général Gouraud	48.8576683	2.3002904
Place du Général Monclar	48.833727	2.309327
Place du Général Patton	48.8761136	2.2870996
Place du Général Stefanik	48.8395196	2.2558894
Place du Général Tessier de Marguerittes	48.8512917	2.4102527
Place du Guatemala	48.8766789	2.3185765
Place du Guignier	48.871542	2.3927778
Place du Havre	48.8755526	2.3266651
Place du Louvre	48.8598784	2.3408426
Place du Maquis du Vercors	48.8777194	2.408857
Place du Marché Sainte-Catherine	48.8554444	2.3626909
Place du marché Sainte-Catherine	48.8555097	2.3628704
Place du Marché Saint-Honoré	48.8669216	2.3321514
Place du Maréchal de Lattre de Tassigny	48.8714978	2.2741958
Place du Maréchal Juin	48.8847447	2.2978237
Place du Maroc	48.8866484	2.3692169
Place du Palais Bourbon	48.8606267	2.3186901
Place du Palais Royal	48.8623531	2.3371231
Place du Panthéon	48.8457836	2.3454915
Place du Paraguay	48.8716275	2.2764391
Place du Père Chaillet	48.8571006	2.3789416
Place du Pérou	48.8753448	2.3151606
Place du Petit Pont	48.8528412	2.3466842
Place du Pont Neuf	48.857003	2.3414521
Place du Président Edouard Herriot	48.8610245	2.3189845
Place du Président Mithouard	48.850508	2.3136954
Place du Puits de l'Ermite	48.8423944	2.3539316
Place du Québec	48.8536426	2.3331131
Place du Tertre	48.8863577	2.3408979
Place du Trocadéro	48.8629697	2.2871786
Place du Trocadéro et du 11 Novembre	48.8626979	2.2875026
place Dulcie September	48.8804237	2.3622278
Place Dupleix	48.851305	2.2953277
Place Edith Piaf	48.8649577	2.4051903
Place Edmond Michelet	48.860044	2.3500315
Place Edmond Rostand	48.8473078	2.340423
Place Edouard Renard	48.8350854	2.4073517
Place Édouard VII	48.8713501	2.3291967
Place Edwige Feuillère	48.8595979	2.3013276
Place el Salvador	48.850678	2.3119148
Place Élisabeth Dmitrieff	48.8666937	2.3616226
Place Emile Landrin	48.8641164	2.3999797
Place Emile Mâle	48.8450275	2.3534335
Place Emmanuel Levinas	48.844569	2.3479188
Place Ernest Denis	48.8418555	2.3374293
Place Etienne Pernet	48.8431674	2.2928187
Place Eugène Claudius-Petit	48.8264984	2.3388931
Place Falguière	48.8363478	2.3101009
Place Félix Eboué	48.839466	2.3955364
Place Ferdinand Brunot	48.8327962	2.3266353
Place Fernand Forest	48.8492093	2.2818027
Place Flora Tristan	48.83236	2.3207771
Place Francis Poulenc	48.8840939	2.386511
Place Franz Liszt	48.8779185	2.3516669
Place Gabriel Péri	48.8752587	2.3242501
Place Gambetta	48.8645704	2.398507
Place Georges Berry	48.8747313	2.3285161
Place Georges Guillaumin	48.8748354	2.3020811
Place Georges Mulot	48.8468927	2.3100173
Place Georges Pompidou	48.8608613	2.351717
Place Gilbert Privat	48.835207	2.3296547
Place Ginette Hamelin	48.8377227	2.3826516
Place Goldoni	48.8653548	2.348708
Place Gustave Toudouze	48.8795775	2.3373405
Place Hébert	48.8931244	2.363427
Place Henri Bergson	48.876176	2.3209045
Place Henri Frenay	48.8453293	2.3766477
Place Henri Krasucki	48.8731472	2.3898142
Place Henri Langlois	48.8308768	2.3549715
Place Henri Matisse	48.8660357	2.3913154
Place Henri Mondor	48.8522332	2.3392789
Place Henri Queuille	48.8452815	2.3114757
Place Henri Rollet	48.8361163	2.2930911
Place Henry de Montherlant	48.860253	2.3270368
Place Jacques Bainville	48.8587411	2.3225982
Place Jacques Bonsergent	48.8711569	2.3610275
Place Jacques Demy	48.8318034	2.3270892
Place Jacques Froment	48.8908537	2.3311637
Place Jacques Marette	48.8328873	2.3006161
Place Jacques Rouché	48.8718866	2.3326937
Place Jacques Rueff	48.8559306	2.2981748
Place Jean Delay	48.8231815	2.3544087
Place Jean Lauprêtre	48.846738	2.3871937
Place Jean Monnet	48.8674355	2.2806681
Place Jean Pronteau	48.8342867	2.3214386
Place Jean Rostand	48.8727619	2.3763225
Place Jean-Baptiste Clément	48.8867696	2.3389423
Place Jeanne d'Arc	48.8300274	2.368538
Place Joachim du Bellay	48.8604723	2.3474822
Place Joffre	48.8527487	2.3031995
Place Johann Strauss	48.8686508	2.3596957
Place José Marti	48.8618206	2.2849633
Place José Rizal	48.8772126	2.342474
Place Joséphine Baker	48.841428	2.3234813
Place Jules Joffrin	48.8927876	2.3444896
Place Jules Renard	48.8841995	2.288874
Place Jules Senard	48.8779547	2.4067601
Place Jussieu	48.84597	2.3551297
Place Justin Godart	48.8580157	2.3348812
Place Kossuth	48.8759623	2.3400077
Place Lachambeaudie	48.8361134	2.3867641
Place Léon Blum	48.8581118	2.3799555
Place Léon Deubel	48.8377967	2.2594505
Place Léonard Bernstein	48.8375504	2.3820093
Place Lili Boulanger	48.8821881	2.3288735
Place Lino Ventura	48.8807752	2.3407152
Place Louis Armstrong	48.835994	2.3601235
Place Louis Lépine	48.8551272	2.3468913
Place Louis Marin	48.8439613	2.338964
Place Louis-Armand	48.8448922	2.372828
Place Lucien Herr	48.8418141	2.3478463
Place Madeleine Braun	48.8756647	2.3596187
Place Madeleine-Renaud-et-Jean-Louis-Barrault	48.8383689	2.3145023
Place Marc Bloch	48.854398	2.401936
Place Marcel Achard	48.8741202	2.3762471
Place Marcel Cerdan	48.8509284	2.2925985
Place Marcel Paul	48.8339704	2.3193782
Place Marcelin Berthelot	48.8491463	2.3456247
Place Marguerite de Navarre	48.8607354	2.3462658
Place Marlène Dietrich	48.8656661	2.2926744
Place Marthe Simard	48.8262878	2.3049982
Place Martin Nadaud	48.8648323	2.3944633
Place Maubert	48.8503465	2.3485224
Place Maubert	48.8500038	2.3485258
Place Maurice Chevalier	48.8683863	2.3861035
Place Maurice de Fontenay	48.8448351	2.3884283
Place Maurice Quentin	48.8614387	2.3452154
Place Michel Audiard	48.8301121	2.3310291
Place Michel Debré	48.8522861	2.3300315
Place Michel Petrucciani	48.8945097	2.3444148
Place Monge	48.8427046	2.3521469
Place Napoléon III	48.8801447	2.354074
Place nationale	48.8289981	2.3653799
Place Nattier	48.8901553	2.3330982
Place Octave Chanute	48.8662845	2.4061337
Place Paul Beauregard	48.8483063	2.2703357
Place Paul Delouvrier	48.8919644	2.3850289
Place Paul Léautaud	48.8871901	2.2979504
Place Paul Painlevé	48.8502779	2.3440184
Place Paul Signac	48.8680344	2.4016661
Place Paul Verlaine	48.8274839	2.3523449
Place Pierre Brisson	48.8663951	2.2991746
Place Pierre Mac Orlan	48.8954003	2.3623595
Place Pierre Vaudrey	48.861165	2.4064306
Place Pierre-Lafue	48.8447898	2.3290231
Place Pigalle	48.8822407	2.337719
Place Pinel	48.8332373	2.3615768
Place Possoz	48.8593597	2.2771547
Place Raoul Dautry	48.8418312	2.320749
Place Raoul Follereau	48.8768249	2.3637025
Place Renée Vivien	48.8617704	2.3571053
Place Richard Baret	48.8844253	2.3213343
Place Richard de Coudenhove-Kalergi	48.8704689	2.2954707
Place Rio de Janeiro	48.8775881	2.3104227
Place Robert Desnos	48.878005	2.3683493
Place Rodin	48.8532253	2.2709444
Place Rutebeuf	48.8442437	2.3784833
Place Saint-André des Arts	48.8530501	2.3429933
Place Saint-Augustin	48.8751197	2.3197681
Place Saint-Blaise	48.8601841	2.4040682
Place Sainte-Geneviève	48.8465392	2.3480897
Place Sainte-Opportune	48.8596505	2.3471041
Place Saint-Fargeau	48.8715273	2.4039772
Place Saint-Ferdinand	48.8781116	2.2880569
Place Saint-Germain des Prés	48.8540791	2.3334731
Place Saint-Gervais	48.8559045	2.353858
Place Saint-Jacques	48.8335871	2.3362595
Place Saint-Jean	48.8889822	2.3250294
Place Saint-Michel	48.8535543	2.3437147
Place Saint-Pierre	48.8843845	2.3435277
Place Saint-Sulpice	48.8512503	2.3334018
Place Salvador Allende	48.857818	2.3103903
Place Simone de Beauvoir	48.8353307	2.3782826
Place Skanderbeg	48.9011049	2.3713365
Place Souham	48.8286521	2.367484
Place St Georges	48.8783398	2.3375221
Place St Thomas d'Aquin	48.856362	2.3277999
Place Stuart Merrill	48.8860112	2.2925629
Place Sully Lombard	48.8650599	2.4083914
Place Suzanne Valadon	48.8844659	2.3424766
Place Tattegrain	48.8639871	2.2723937
Place Théodore Rivière	48.847084	2.268672
Place Tristan Bernard	48.8792424	2.2913185
Place Valhubert	48.8440085	2.3641203
Place Vauban	48.853667	2.3127744
Place Vendôme	48.8675839	2.3293456
Place Victor Et Héléne Basch	48.8280523	2.3267303
Place Victor Hugo	48.8695906	2.2850711
Place Violet	48.8446668	2.2905017
Place Yvon et Claire Morandat	48.8758743	2.2890806
Quai Anatole France	48.8611182	2.3241852
Quai André Citroën	48.8465008	2.2781399
Quai aux Fleurs	48.8540661	2.3517333
Quai Branly	48.8594411	2.2940798
Quai d'Anjou	48.8519272	2.3586118
Quai d'Austerlitz	48.8408222	2.3694391
Quai de Béthune	48.8505912	2.3575204
Quai de Bourbon	48.8530564	2.3551833
Quai de Conti	48.8571852	2.3386021
Quai de Gesvres	48.8567346	2.3489314
Quai de Grenelle	48.8519289	2.2851979
Quai de Jemmapes	48.8759551	2.3646551
Quai de la Charente	48.895848	2.3844599
Quai de la Corse	48.8556628	2.3483499
Quai de la Gare	48.8365222	2.37459
Quai de la Garonne	48.8899984	2.3873277
Quai de la Gironde	48.8957809	2.3835861
Quai de la Loire	48.8856821	2.37546
Quai de la Marne	48.8899122	2.3830843
Quai de la Mégisserie	48.8579359	2.3445313
Quai de la Rapée	48.8438084	2.3702208
Quai de la Seine	48.8866766	2.3745459
Quai de la Tournelle	48.8504277	2.3535444
Quai de l'Allier	48.9004755	2.381311
Quai de l'Archevêché	48.8522151	2.3519815
Quai de l'Horloge	48.8569164	2.3436511
Quai de l'Hôtel de ville	48.854935	2.3535492
Quai de l'Oise	48.8902828	2.3826789
Quai de Metz	48.8911416	2.3865304
Quai de Montebello	48.8523052	2.3484024
Quai de Valmy	48.8764049	2.3642917
Quai des Célestins	48.8524287	2.3602768
Quai des Grands Augustins	48.8548346	2.3421504
Quai des Orfèvres	48.8554673	2.3428742
Quai des Tuileries	48.8627614	2.3243112
Quai d'Issy-les-Moulineaux	48.8373937	2.2682711
Quai d'Orléans	48.8516821	2.3541104
Quai d'Orsay	48.8626373	2.3107915
Quai du Lot	48.9008903	2.3804659
Quai du Louvre	48.8587874	2.3410568
Quai du Marché Neuf	48.8541127	2.3455588
Quai François Mauriac	48.8339111	2.3776154
Quai François Mitterrand	48.859953	2.3341198
Quai Henri IV	48.8487686	2.3627371
Quai Louis Blériot	48.8451649	2.2725541
Quai Malaquais	48.8580983	2.3340792
Quai Panhard et Levassor	48.8299655	2.3826409
Quai Saint-Bernard	48.8468697	2.360971
Quai Saint-Michel	48.853481	2.3453802
Quai Voltaire	48.8587917	2.331602
Quartier de Bercy	48.835455	2.3856832
Quartier de la Gare	48.8280752	2.3674068
Quinze-Vingts	48.8480573	2.3746966
Rond-Point des Champs-Élysées Marcel-Dassault	48.8692427	2.3091784
Rond-Point du Bleuet de France	48.8584193	2.3129334
Route Aimable	48.8277437	2.4244414
Route Bosquet Mortemart	48.828511	2.457948
Route Brûlée	48.8354611	2.4270113
Route Circulaire	48.8381548	2.4605493
Route d'Auteuil À Suresnes	48.8565587	2.2438011
Route d'Auteuil aux Lacs	48.8521313	2.2541871
Route de Boulogne à Passy	48.8501743	2.2480776
Route de Bourbon	48.8279845	2.4438207
Route de Ceinture du Lac Daumesnil	48.8322595	2.4156339
Route de la Brasserie	48.827012	2.421559
Route de la Cascade	48.8344397	2.4614948
Route de la Croix Rouge	48.8321595	2.4062741
Route de la Dame Blanche	48.8451343	2.4413122
Route de la Demi Lune	48.8238444	2.4395527
Route de la Faluère	48.8322444	2.4416331
Route de la Ferme	48.8235536	2.4572368
Route de la Gerbe	48.8203287	2.4525985
Route de la Grande Cascade	48.8634419	2.2490049
Route de la Longue Queue	48.8688712	2.2486841
Route de la Ménagerie	48.8357054	2.4661108
Route de la Muette à Neuilly	48.871643	2.2643416
Route de la Plaine	48.8272536	2.4127618
Route de la Pompadour	48.8265114	2.4288098
Route de la Porte Dauphine à la Porte des Sablons	48.8742922	2.2714528
Route de la Porte des Sablons à la Porte Maillot	48.8768424	2.2749217
Route de la Porte Jaune	48.8411267	2.4563821
Route de la Porte Noire	48.8331742	2.4571756
Route de la Porte Saint-James	48.8766278	2.2601396
Route de la Pyramide	48.830218	2.4502455
Route de la Seine À la Butte Mortemart	48.8525859	2.2399173
Route de la Vierge aux Berceaux	48.8604859	2.2457897
Route de l'Esplanade	48.8404286	2.4305219
Route de Sèvres À Neuilly	48.8638694	2.2397955
Route de Suresnes	48.8663469	2.253572
Route des Barrières	48.818319	2.4496349
Route des Batteries	48.8295284	2.423809
Route des Bosquets	48.8367329	2.4606645
Route des Chênes	48.8368145	2.4627428
Route des Dames	48.8393889	2.4536915
Route des Fortifications	48.8312178	2.401845
Route des Lacs	48.8725319	2.270983
Route des Lacs À Bagatelle	48.8678687	2.2510515
Route des Lacs À Madrid	48.8714622	2.2583742
Route des Lacs à Passy	48.8583422	2.2608973
Route des Merisiers	48.8319481	2.4615295
Route des Moulins	48.8663461	2.2367579
Route des Pelouses	48.8391154	2.4627609
Route des Pins	48.8608729	2.2633951
Route des Sabotiers	48.8420164	2.4470368
Route des Tribunes	48.8593095	2.2293265
Route Domaine Pérignon	48.8279802	2.409663
Route du Bac	48.8269461	2.4140747
Route du Donjon	48.8442914	2.4469075
Route du Fort de Gravelle	48.8206297	2.453349
Route du Grand Maréchal	48.8408321	2.4577935
Route du Grand Prieur	48.8360607	2.4559525
Route du Lac de Saint-Mandé	48.8384708	2.4245318
Route du Moulin Rouge	48.8209565	2.435668
Route du Parc	48.8251048	2.421058
Route du Pesage	48.8226259	2.4460264
Route du Point de Vue	48.8193463	2.4490902
Route du Point du Jour à Bagatelle	48.8528351	2.2476155
Route du Point du Jour À Suresnes	48.8561807	2.2411314
Route du Pré Catelan	48.8659791	2.2576535
Route Nouvelle	48.8201977	2.4394461
Route Odette	48.8386796	2.4651033
Route Royale de Beauté	48.8343276	2.4418109
Route Sablonneuse	48.8704445	2.2668572
Route Saint-Louis	48.828369	2.4264313
Rue Abel	48.8471085	2.3751841
Rue Abel Ferry	48.8361548	2.2608997
Rue Abel Gance	48.8357971	2.3740327
Rue Abel Hovelacque	48.8320644	2.3528202
Rue Abel Rabaud	48.8695186	2.3721047
Rue Abel Truchet	48.8832278	2.3240751
Rue Achille	48.8623872	2.3986993
Rue Achille Luchaire	48.8237973	2.3214461
Rue Achille Martinet	48.8921367	2.3369495
Rue Adolphe Adam	48.8574926	2.348622
Rue Adolphe Focillon	48.8269134	2.3283897
Rue Adolphe Jullien	48.8629757	2.3418859
Rue Adolphe Mille	48.8884383	2.3888952
Rue Adolphe Yvon	48.8642202	2.2709901
Rue Adrien Lesesne	48.9020308	2.3482212
Rue Affre	48.8862145	2.3556483
Rue Agar	48.8513637	2.2739292
Rue Agrippa d'Aubigné	48.8500458	2.3621723
Rue Aimé Lavy	48.8935637	2.3454171
Rue Aimé Morot	48.8201074	2.3497965
Rue Alain	48.8367846	2.3161836
Rue Alain Chartier	48.837973	2.295872
Rue Alasseur	48.8510298	2.2982312
Rue Albéric Magnard	48.8603466	2.2718065
Rue Albert	48.8258177	2.3718344
Rue Albert Bayet	48.8305452	2.3588884
Rue Albert Camus	48.8778822	2.3688466
Rue Albert de Lapparent	48.8484599	2.308367
Rue Albert Einstein	48.8268133	2.3818986
Rue Albert Malet	48.8415419	2.4107914
Rue Albert Marquet	48.8577491	2.4050844
Rue Albert Roussel	48.8918612	2.3055681
Rue Albert Samain	48.8862893	2.2946536
Rue Albert Sorel	48.823053	2.3220582
Rue Albert Thomas	48.8700341	2.362482
Rue Albert Willemetz	48.8483506	2.4155959
Rue Albin Haller	48.8223211	2.3492813
Rue Albinoni	48.8425628	2.3887557
Rue Alexander Fleming	48.881141	2.4046821
Rue Alexandre Cabanel	48.8485388	2.3024643
Rue Alexandre Charpentier	48.8843626	2.2876702
Rue Alexandre de Humboldt	48.8884624	2.3801723
Rue Alexandre Dumas	48.8538418	2.393912
Rue Alexandre Parodi	48.8798162	2.3655308
Rue Alfred Bruneau	48.8557729	2.2772619
Rue Alfred de Vigny	48.8789753	2.3051164
Rue Alfred Dehodencq	48.8609306	2.2711536
Rue Alfred Durand-Claye	48.8290172	2.3073268
Rue Alfred Fouillée	48.8194109	2.3639104
Rue Alfred Roll	48.8873649	2.3005689
Rue Alfred Stevens	48.8817181	2.3387785
Rue Alibert	48.8716437	2.3676562
Rue Alice Domon et Léonie Duquet	48.8282416	2.3824607
Rue Allent	48.8578055	2.3307506
Rue Alphand	48.8282038	2.3485421
Rue Alphonse Aulard	48.8805501	2.39964
Rue Alphonse Baudin	48.8607716	2.370416
Rue Alphonse Bertillon	48.8344866	2.3108847
Rue Alphonse Daudet	48.8266002	2.3274976
Rue Alphonse de Neuville	48.8863073	2.3019466
Rue Alphonse Karr	48.8949411	2.3806136
Rue Alphonse Penaud	48.8683664	2.4067536
Rue Ambroise Paré	48.8819283	2.3527491
Rue Ambroise Thomas	48.8749021	2.3475406
Rue Amélie	48.8593185	2.3074492
Rue Amelot	48.8601599	2.3680131
Rue Ampère	48.885275	2.3029974
Rue Amyot	48.8434435	2.3471241
Rue Anatole de la Forge	48.8752465	2.2913936
Rue André Antoine	48.8834901	2.337797
Rue André Barsacq	48.8850882	2.3415114
Rue André Bréchet	48.8989536	2.3265146
Rue André Colledeboeuf	48.8519522	2.2700455
Rue André Danjon	48.8853982	2.384601
Rue André del Sarte	48.8857707	2.3464716
Rue André Derain	48.8399011	2.4069988
Rue André Dubois	48.8834969	2.381892
Rue André Gide	48.8371424	2.3130434
Rue André Gill	48.8828625	2.339697
Rue André Lefebvre	48.8430005	2.2781318
Rue André Mazet	48.8538823	2.3391104
Rue André Messager	48.8951067	2.3422896
Rue André Pascal	48.8611829	2.269815
Rue André Pieyre de Mandiargues	48.8216458	2.3571313
Rue André Theuriet	48.8284201	2.2967759
Rue Andrieux	48.8812595	2.3189976
Rue Androuet	48.8858203	2.33853
Rue Angélique Compoint	48.8972461	2.3357242
Rue Annie Girardot	48.821812	2.3478103
Rue Anselme Payen	48.8384676	2.3106596
Rue Antoine Arnauld	48.8559534	2.272243
Rue Antoine Bourdelle	48.8428959	2.3184971
Rue Antoine Chantin	48.8271835	2.3227062
Rue Antoine Dubois	48.8510768	2.3397
Rue Antoine Hajje	48.8461728	2.2851298
Rue Antoine Roucher	48.8469838	2.2716376
Rue Antoine Vollon	48.8504627	2.3768131
Rue Antoine-Julien Hénard	48.8423079	2.3896307
Rue Antoinette Fouque	48.87591	2.4071507
Rue Antonin Mercié	48.8286443	2.3006031
Rue Archereau	48.8915038	2.3742557
Rue Aristide Briand	48.8615992	2.3193396
Rue Aristide Bruant	48.8852448	2.3351182
Rue Aristide Maillol	48.8377201	2.3117336
Rue Armand Carrel	48.8827744	2.3756333
Rue Armand Gauthier	48.8894211	2.3329543
Rue Armand Moisant	48.8425159	2.3173201
Rue Arsène Houssaye	48.8740419	2.2987071
Rue Arthur Brière	48.8952267	2.3273302
Rue Arthur Groussier	48.8718019	2.3700926
Rue Arthur Ranc	48.8983616	2.3338865
Rue Arthur Rozier	48.8781288	2.3908199
Rue Asseline	48.8350317	2.3225264
Rue au Maire	48.8646446	2.3563052
Rue Aubé	48.8552146	2.3470341
Rue Auber	48.8722401	2.3298192
Rue Aubriot	48.8583527	2.3568758
Rue Aubry le Boucher	48.8603803	2.3501994
Rue Audran	48.8854247	2.3361472
Rue Audubon	48.8460518	2.3695242
Rue Auger	48.8511468	2.3994073
Rue Augereau	48.8573063	2.3020421
Rue Auguste Barbier	48.8687185	2.3713253
Rue Auguste Bartholdi	48.8506296	2.2943309
Rue Auguste Cain	48.8259585	2.3206039
Rue Auguste Chabrières	48.8351367	2.2890332
Rue Auguste Chapuis	48.8563898	2.411812
Rue Auguste Comte	48.844315	2.3360092
Rue Auguste Dorchain	48.8449787	2.2979588
Rue Auguste Lançon	48.8232238	2.3447638
Rue Auguste Laurent	48.8579751	2.3815838
Rue Auguste Maquet	48.8395182	2.2660216
Rue Auguste Mie	48.8369741	2.3235151
Rue Auguste Perret	48.8247742	2.359226
Rue Auguste Vacquerie	48.870341	2.2952827
Rue Auguste Vitu	48.8453563	2.2785797
Rue Augustin Thierry	48.8760975	2.3940464
Rue Aumont	48.8259797	2.3613981
Rue Aumont-Thiéville	48.8837938	2.2886549
Rue aux Ours	48.8632451	2.3516442
Rue Bachaumont	48.8659875	2.3460748
Rue Bachelet	48.8886541	2.3448863
Rue Baillet	48.859725	2.3430275
Rue Bailleul	48.8610093	2.3416441
Rue Baillou	48.8287167	2.3218171
Rue Bailly	48.8650532	2.356348
Rue Balard	48.8408801	2.2779271
Rue Ballu	48.8820211	2.3295492
Rue Balny d'Avricourt	48.8830353	2.2969216
Rue Balzac	48.8744342	2.3013117
Rue Baptiste Renard	48.8279294	2.3666624
Rue Barbanègre	48.8928527	2.3838731
Rue Barbet de Jouy	48.8532528	2.3174986
Rue Barbette	48.8588794	2.3607038
Rue Bardinet	48.8302175	2.3164682
Rue Bargue	48.8389779	2.3076353
Rue Baron	48.8952709	2.3232847
Rue Baron le Roy	48.8340356	2.3888004
Rue Barrault	48.8262364	2.3465753
Rue Barrelet de Ricou	48.8774013	2.377927
Rue Barye	48.8814759	2.3033146
Rue Basfroi	48.8551012	2.3792046
Rue Basse des Carmes	48.8492064	2.3485483
Rue Bassompierre	48.8510232	2.3665942
Rue Baste	48.8810459	2.3739613
Rue Bastien Lepage	48.8485266	2.2660594
Rue Baudelique	48.8928435	2.3474283
Rue Baudoin	48.832205	2.3689513
Rue Baudricourt	48.8262535	2.3634459
Rue Baulant	48.8409585	2.3868165
Rue Bausset	48.8394395	2.2987887
Rue Bayard	48.866345	2.3078191
Rue Bayen	48.8812634	2.2927777
Rue Béatrix Dussane	48.8500473	2.2907614
Rue Beaubourg	48.8627337	2.3542903
Rue Beaugrenelle	48.8475307	2.2858062
Rue Beaujon	48.8751966	2.2987188
Rue Beaunier	48.824487	2.3283124
Rue Beauregard	48.8693015	2.3496863
Rue Beaurepaire	48.8702144	2.3637544
Rue Beautreillis	48.852663	2.3633308
Rue Beccaria	48.846519	2.3793313
Rue Becquerel	48.8888189	2.3434996
Rue Beethoven	48.8584523	2.2873437
Rue Belgrand	48.8646911	2.4036333
Rue Belhomme	48.8840106	2.3484451
Rue Belidor	48.8802567	2.2859664
Rue Bellart	48.847018	2.3084508
Rue Belliard	48.8967718	2.3384676
Rue Bellier-Dedouvre	48.8246125	2.3505214
Rue Bellini	48.860825	2.2824042
Rue Bellot	48.8859526	2.3677596
Rue Bénard	48.8317419	2.3221039
Rue Benjamin Constant	48.8952612	2.382547
Rue Benjamin Franklin	48.8602418	2.2857857
Rue Benjamin Godard	48.8662235	2.2755636
Rue Béranger	48.8661957	2.3636357
Rue Berbier du Mets	48.8348056	2.3509923
Rue Berger	48.8615675	2.3453646
Rue Bergère	48.8723452	2.3455534
Rue Berlioz	48.8754269	2.2828356
Rue Bernard de Clairvaux	48.8623964	2.3520514
Rue Bernard de Ventadour	48.8351834	2.3160572
Rue Bernard Dimey	48.8970081	2.3310047
Rue Bernard Lecache	48.8456936	2.415079
Rue Bernard Palissy	48.8531526	2.3313914
Rue Bernoulli	48.880902	2.3211028
Rue Berryer	48.875255	2.3039288
Rue Berthe	48.8855945	2.3397975
Rue Berthollet	48.83883	2.3457502
Rue Bertin Poirée	48.8587226	2.3447945
Rue Berton	48.854955	2.2805839
Rue Bervic	48.8841	2.3491964
Rue Berzélius	48.8944049	2.319773
Rue Bessières	48.8950436	2.3161702
Rue Beudant	48.8825837	2.3192854
Rue Bezout	48.8288991	2.3300645
Rue Bichat	48.8723692	2.3669272
Rue Bignon	48.8407411	2.3886437
Rue Biot	48.8843639	2.3261206
Rue Biscornet	48.8501924	2.3698341
Rue Bisson	48.8707974	2.3811144
Rue Bixio	48.8523473	2.3104093
Rue Blainville	48.8444897	2.3486477
Rue Blaise Desgoffe	48.8457558	2.3246189
Rue Blanchard	48.8575444	2.4102571
Rue Blanche	48.8803754	2.3314177
Rue Blanche-Antoinette	48.8821729	2.3902232
Rue Bleue	48.8758874	2.346396
Rue Blomet	48.8409012	2.3004746
Rue Blondel	48.8687201	2.3536733
Rue Bobillot	48.8267084	2.3512823
Rue Bochart de Saron	48.8812049	2.3425127
Rue Boileau	48.8434682	2.2631989
Rue Boinod	48.8933979	2.350893
Rue Bois le Vent	48.8576295	2.2755101
Rue Boissière	48.866971	2.2896254
Rue Boissieu	48.8842691	2.3492923
Rue Boissonade	48.8390911	2.3331459
Rue Boissy d'Anglas	48.8688664	2.3218997
Rue Bonaparte	48.8534769	2.3333554
Rue Bonnet	48.897038	2.3355293
Rue Borda	48.8662304	2.3571866
Rue Boris Vian	48.8849967	2.3540748
Rue Borromée	48.8422223	2.3044848
Rue Bosio	48.8490963	2.2652862
Rue Bosquet	48.8558431	2.3054255
Rue Bossuet	48.8786648	2.3522725
Rue Botha	48.8712776	2.3872176
Rue Botzaris	48.8793645	2.3846598
Rue Bouchardon	48.8708519	2.3578954
Rue Boucher	48.8594976	2.3439054
Rue Bouchut	48.8469511	2.3099876
Rue Boucicaut	48.8425354	2.2858948
Rue Boucry	48.8940763	2.36176
Rue Boudreau	48.8722395	2.3291698
Rue Bougainville	48.8558824	2.3081677
Rue Bouilloux-Lafont	48.8370151	2.2798384
Rue Boulard	48.8331714	2.3283571
Rue Boulay	48.893733	2.3174103
Rue Boulitte	48.8282248	2.3170248
Rue Boulle	48.8569006	2.3722099
Rue Bourdaloue	48.8768208	2.3387657
Rue Bouret	48.881696	2.3739598
Rue Bourgon	48.8229856	2.3570389
Rue Boursault	48.8844732	2.3195193
Rue Bourseul	48.8389638	2.303348
Rue Boussingault	48.8244912	2.3441252
Rue Boutarel	48.8526967	2.3541521
Rue Boutebrie	48.8516646	2.3447622
Rue Boutin	48.8283336	2.3422065
Rue Bouvier	48.8521087	2.3877563
Rue Boyer	48.8678721	2.3924782
Rue Boyer-Barret	48.832795	2.3179235
Rue Brahms	48.8405761	2.3927694
Rue Brancion	48.8326103	2.3033826
Rue Brantôme	48.8621394	2.3529567
Rue Bréa	48.8427237	2.3298401
Rue Bretonneau	48.8675594	2.4029694
Rue Brey	48.8769066	2.2952574
Rue Brézin	48.8314151	2.3271061
Rue Bridaine	48.885637	2.3198111
Rue Brignole	48.8654574	2.2958454
Rue Brillat-Savarin	48.8223699	2.3471239
Rue Briquet	48.8833688	2.3442116
Rue Brisemiche	48.8597778	2.3520065
Rue Broca	48.837172	2.3470434
Rue Brochant	48.8891713	2.3182907
Rue Brongniart	48.8697694	2.3428845
Rue Broussais	48.8291077	2.3366229
Rue Brown-Séquard	48.8414853	2.31544
Rue Bruant	48.8350031	2.3651344
Rue Bruller	48.8281868	2.3355133
Rue Brunel	48.8778381	2.2881807
Rue Bruno Coquatrix	48.8714741	2.328573
Rue Budé	48.8514659	2.3553407
Rue Buffault	48.8757636	2.3420043
Rue Buffon	48.842059	2.3593475
Rue Buot	48.8270922	2.3492275
Rue Burnouf	48.8757656	2.3740503
Rue Burq	48.886241	2.3363402
Rue Buzelin	48.8906027	2.3639169
Rue Cabanis	48.8303257	2.3388505
Rue Cacheux	48.8203465	2.3462082
Rue Cadet	48.8754616	2.3434134
Rue Caffarelli	48.8640568	2.3624157
Rue Cail	48.8827364	2.3605655
Rue Caillaux	48.8225006	2.3605662
Rue Calmels	48.8936763	2.3390222
Rue Cambacérès	48.8731657	2.3179561
Rue Cambon	48.8677947	2.3264989
Rue Cambronne	48.8437402	2.3024084
Rue Camille Blaisot	48.900335	2.328709
Rue Camille Bombois	48.866125	2.4083441
Rue Camille Desmoulins	48.8590459	2.3812794
Rue Camille Flammarion	48.8984756	2.3396811
Rue Camille Pissarro	48.8900702	2.3011611
Rue Camille Tahan	48.8864005	2.3282935
Rue Campagne Première	48.8397586	2.3325088
Rue Cannebière	48.8381969	2.3982108
Rue Cantagrel	48.8270287	2.374533
Rue Caplat	48.8842324	2.3524308
Rue Capron	48.8852131	2.3278708
Rue Carcel	48.8402543	2.2996634
Rue Cardan	48.8931912	2.3176704
Rue Cardinale	48.8542051	2.336091
Rue Cardinet	48.8851401	2.310908
Rue Carducci	48.877375	2.3866799
Rue Caroline	48.8836565	2.3241162
Rue Carolus Duran	48.8780244	2.4017144
Rue Caron	48.8552502	2.3627276
Rue Carpeaux	48.8909621	2.3314295
Rue Carrier-Belleuse	48.846824	2.302567
Rue Carrière-Mainguet	48.8565629	2.3870243
Rue Casimir Delavigne	48.8509042	2.3394853
Rue Casimir Périer	48.8581519	2.3194728
Rue Cassette	48.849596	2.3308809
Rue Cassini	48.8373255	2.3365625
Rue Castagnary	48.8322924	2.3077841
Rue Castex	48.8528616	2.3662212
Rue Catinat	48.8656832	2.3409543
Rue Catulle Mendès	48.8866545	2.2913312
Rue Cauchois	48.885167	2.3329836
Rue Cauchy	48.8423892	2.277739
Rue Caulaincourt	48.8878981	2.3336949
Rue Cavallotti	48.8863217	2.3281895
Rue Cavendish	48.8831538	2.3798828
Rue Cazotte	48.8852965	2.3444426
Rue Cels	48.8365178	2.3246116
Rue Censier	48.8404252	2.353176
Rue Cépré	48.846897	2.3035828
Rue Cernuschi	48.8862611	2.3071862
Rue César Franck	48.8473411	2.3097687
Rue Cesselin	48.8515659	2.3852871
Rue Chabanais	48.867702	2.3370348
Rue Chalgrin	48.8742876	2.2896027
Rue Chambiges	48.8671204	2.304093
Rue Chamfort	48.851274	2.2677991
Rue Champfleury	48.8540569	2.2974868
Rue Championnet	48.8957642	2.3401641
Rue Champollion	48.8499163	2.34296
Rue Chanez	48.847533	2.2599781
Rue Changarnier	48.8453305	2.4117152
Rue Chanoinesse	48.853757	2.3508529
Rue Chanzy	48.8526569	2.3849051
Rue Chapon	48.8635191	2.3557355
Rue Chappe	48.8849987	2.3418309
Rue Chaptal	48.8808427	2.3332679
Rue Chapu	48.8406755	2.2662063
Rue Charbonnel	48.8224139	2.3427565
Rue Charcot	48.8303543	2.3704375
Rue Chardin	48.8592171	2.2883603
Rue Chardon Lagache	48.8439079	2.2656137
Rue Charlemagne	48.8542624	2.3602688
Rue Charles Baudelaire	48.8497737	2.3770216
Rue Charles Bertheau	48.8230666	2.3638379
Rue Charles Bossut	48.8432538	2.3837047
Rue Charles Cros	48.876737	2.4079889
Rue Charles Delescluze	48.8525463	2.3801376
Rue Charles Dickens	48.8569179	2.2844447
Rue Charles Divry	48.8332308	2.3269922
Rue Charles et Robert	48.8531339	2.4119726
Rue Charles Fourier	48.8250572	2.3514982
Rue Charles Friedel	48.8726545	2.3952311
Rue Charles Gerhardt	48.8861682	2.3033414
Rue Charles Hermite	48.8997764	2.3673027
Rue Charles Lamoureux	48.868962	2.2779109
Rue Charles Lauth	48.8993075	2.3678033
Rue Charles le Goffic	48.8241216	2.3202313
Rue Charles Lecocq	48.8407464	2.2946661
Rue Charles Luizet	48.8616858	2.3675923
Rue Charles Marie Widor	48.8409674	2.2624254
Rue Charles Monselet	48.8792667	2.4005698
Rue Charles Moureu	48.8281311	2.3617665
Rue Charles Nicolle	48.843835	2.3858439
Rue Charles Nodier	48.8852106	2.3449251
Rue Charles Renouvier	48.8617205	2.4001759
Rue Charles Robin	48.8773965	2.3697445
Rue Charles Tellier	48.8384559	2.2622776
Rue Charles Tournemire	48.8855857	2.2857916
Rue Charles V	48.8527935	2.3630575
Rue Charles Weiss	48.8329958	2.3079964
Rue Charles-François Dupuis	48.8651801	2.3630122
Rue Charlot	48.8628796	2.3625658
Rue Charras	48.8742412	2.3297842
Rue Charrière	48.8528325	2.3820451
Rue Chasseloup Laubat	48.8477615	2.3048379
Rue Chateaubriand	48.8735469	2.3009485
Rue Chauchat	48.8735903	2.3396478
Rue Chaudron	48.8831881	2.3656166
Rue Chauveau Lagarde	48.871492	2.3232118
Rue Chauvelot	48.829102	2.3025007
Rue Chénier	48.8691379	2.3515611
Rue Chéreau	48.8276407	2.3514963
Rue Chernoviz	48.8574172	2.2817472
Rue Chevert	48.8553831	2.3083609
Rue Chevreul	48.849769	2.3920031
Rue Choderlos de Laclos	48.8327128	2.3782715
Rue Chomel	48.8518594	2.3247971
Rue Choron	48.8774728	2.3414226
Rue Chrétien de Troyes	48.8442846	2.379149
Rue Christian Dewet	48.8465773	2.3925221
Rue Christiani	48.8859972	2.34846
Rue Christine	48.8546892	2.3393123
Rue Christine de Pisan	48.8895595	2.3088152
Rue Christophe Colomb	48.8699381	2.3001716
Rue Cimarosa	48.8678871	2.2905596
Rue Cino del Duca	48.8855755	2.2845448
Rue Civiale	48.8726414	2.3754382
Rue Clairaut	48.8888928	2.3206074
Rue Clapeyron	48.881736	2.3239888
Rue Claude Bernard	48.8398185	2.347251
Rue Claude Chahu	48.8587768	2.2823371
Rue Claude Debussy	48.8849348	2.2891809
Rue Claude Decaen	48.8363488	2.3989271
Rue Claude Farrère	48.8424493	2.252257
Rue Claude Garamond	48.8257579	2.3009199
Rue Claude Lorrain	48.8412783	2.2607438
Rue Claude Pouillet	48.8842391	2.3146831
Rue Claude Terrasse	48.8385489	2.2620169
Rue Claude Tillier	48.8487884	2.3888482
Rue Clauzel	48.8791257	2.3385513
Rue Clavel	48.8752919	2.3840961
Rue Clémence Royer	48.8632776	2.3429886
Rue Clément	48.8524949	2.3358603
Rue Clément Marot	48.867413	2.3036471
Rue Clément Myionnet	48.8442583	2.2776841
Rue Cler	48.8577001	2.3059504
Rue Clisson	48.8317054	2.3668806
Rue Cloche Percé	48.8561315	2.357087
Rue Clodion	48.8515162	2.2922583
Rue Clotaire	48.8454556	2.3445588
Rue Clotilde	48.8455926	2.3468589
Rue Clotilde de Vaux	48.8576973	2.3682634
Rue Clouet	48.84686	2.3043689
Rue Clovis	48.8461954	2.3489211
Rue Clovis Hugues	48.8824129	2.3742527
Rue Cochin	48.8501497	2.3526671
Rue Coëtlogon	48.8500878	2.3294886
Rue Cognacq Jay	48.8618261	2.3033634
Rue Colbert	48.8682118	2.3381815
Rue Collette	48.8936336	2.3266039
Rue Commines	48.8618019	2.3653754
Rue Compans	48.8787851	2.3926206
Rue Condillac	48.8644021	2.3837228
Rue Condorcet	48.8799282	2.3449062
Rue Constance	48.8856935	2.3333504
Rue Constant Berthaut	48.8746945	2.3891221
Rue Conté	48.8659026	2.3563856
Rue Copernic	48.8693948	2.2876722
Rue Copreaux	48.8419889	2.3067349
Rue Coq Héron	48.8643604	2.3423829
Rue Coquillière	48.8639425	2.3423871
Rue Corbineau	48.8390972	2.3819519
Rue Corbon	48.8363552	2.3031107
Rue Coriolis	48.8367652	2.3903113
Rue Corneille	48.8492814	2.3390448
Rue Corot	48.8471485	2.270041
Rue Cortambert	48.8609925	2.2790568
Rue Cortot	48.8876545	2.3407447
Rue Corvetto	48.8773934	2.314881
Rue Corvisart	48.8320904	2.3473178
Rue Couche	48.8275612	2.3306038
Rue Courat	48.8570296	2.4054608
Rue Cournot	48.8401227	2.2930681
Rue Courtalon	48.8595645	2.3476908
Rue Coustou	48.8841712	2.3339306
Rue Coypel	48.8332184	2.3555515
Rue Coysevox	48.8911239	2.3294054
Rue Crébillon	48.8502229	2.3382854
Rue Crémieux	48.8470401	2.3711248
Rue Crespin du Gast	48.8654304	2.382154
Rue Crevaux	48.8707486	2.2812127
Rue Crillon	48.8493345	2.3655556
Rue Cristino Garcia	48.849932	2.413719
Rue Crocé-Spinelli	48.8354594	2.3167483
Rue Croix des Petits Champs	48.8640851	2.3400497
Rue Crozatier	48.8480432	2.380698
Rue Cugnot	48.892384	2.3650829
Rue Cujas	48.8474646	2.3433613
Rue Cunin-Gridaine	48.8651528	2.3543781
Rue Curial	48.8932777	2.3731309
Rue Curnonsky	48.8903274	2.296151
Rue Custine	48.8887736	2.3466158
Rue Cuvier	48.8453322	2.3579759
Rue Cyrano de Bergerac	48.8908318	2.3421424
Rue d'Abbeville	48.8787908	2.3501684
Rue d'Aboukir	48.8677041	2.3467825
Rue Dagorno	48.8424792	2.3996827
Rue Daguerre	48.8346903	2.3276653
Rue d'Aguesseau	48.8706672	2.3197128
Rue d'Aix	48.8709679	2.3691541
Rue Dalayrac	48.8678881	2.3352662
Rue d'Alembert	48.8297693	2.3329413
Rue d'Alençon	48.8445669	2.3210011
Rue d'Alésia	48.8284544	2.3250299
Rue d'Alexandrie	48.8681271	2.3506508
Rue d'Alger	48.865326	2.3297915
Rue d'Aligre	48.8491029	2.3782163
Rue d'Alleray	48.8365769	2.3047724
Rue Dalloz	48.8215072	2.3707202
Rue Dalou	48.8426074	2.3145403
Rue d'Alsace	48.8779431	2.3583123
Rue d'Alsace-Lorraine	48.8834091	2.3922097
Rue d'Amboise	48.8712049	2.3381797
Rue Damesme	48.8234581	2.3554467
Rue Dampierre	48.8939806	2.3836677
Rue Damrémont	48.8918801	2.3351423
Rue d'Amsterdam	48.8794391	2.3270175
Rue Dancourt	48.8832005	2.3417997
Rue d'Andigné	48.8591362	2.2717823
Rue Dangeau	48.8527081	2.2688896
Rue Daniel Stern	48.8511839	2.2944431
Rue Danielle Casanova	48.8679589	2.3317332
Rue d'Anjou	48.8721351	2.3217969
Rue d'Ankara	48.8550608	2.2827382
Rue d'Annam	48.86699	2.3943391
Rue Dante	48.8510825	2.3462198
Rue d'Antin	48.8686582	2.3331656
Rue Danton	48.8524438	2.3418196
Rue Danville	48.8346227	2.3278612
Rue Darboy	48.8690343	2.3729649
Rue Darcet	48.8839054	2.3249334
Rue d'Arcole	48.8543897	2.3497597
Rue d'Arcueil	48.8204678	2.3428363
Rue Darcy	48.8704186	2.4054286
Rue Dareau	48.8308891	2.3366951
Rue d'Argenson	48.8747974	2.3168024
Rue d'Argenteuil	48.8653259	2.3338938
Rue d'Argentine	48.8745425	2.2899762
Rue d'Argout	48.8659602	2.3435158
Rue d'Armaillé	48.8780982	2.2915655
Rue Darmesteter	48.8228607	2.3754394
Rue d'Arras	48.8471205	2.3512361
Rue d'Arsonval	48.8401609	2.3135681
Rue d'Artagnan	48.8454518	2.3856412
Rue d'Artois	48.8731833	2.3073744
Rue Daru	48.8778818	2.3017072
Rue Darwin	48.8902663	2.3390063
Rue d'Assas	48.8451265	2.3321803
Rue d'Astorg	48.8732256	2.3195503
Rue d'Athènes	48.8780044	2.3283146
Rue Daubenton	48.8411398	2.3526289
Rue d'Aubervilliers	48.8912219	2.368831
Rue Daubigny	48.8855051	2.3080989
Rue d'Aumale	48.8782748	2.335698
Rue Daumier	48.8395747	2.2633082
Rue Daunou	48.8695761	2.3315269
Rue Dauphine	48.8550261	2.3395981
Rue d'Austerlitz	48.8470308	2.3706572
Rue Dautancourt	48.8900225	2.3249489
Rue d'Auteuil	48.8480168	2.264221
Rue Daval	48.8548735	2.370735
Rue David d'Angers	48.8821872	2.3923001
Rue Daviel	48.8280394	2.3450819
Rue Davioud	48.8554631	2.2709938
Rue d'Avron	48.8523713	2.4042315
Rue Davy	48.891195	2.324716
Rue de Babylone	48.8517041	2.3205121
Rue de Bagnolet	48.8595178	2.4028072
Rue de Bassano	48.8698204	2.2983825
Rue de Bazeilles	48.8390634	2.3502874
Rue de Béarn	48.8569793	2.3660741
Rue de Beauce	48.8628356	2.3611353
Rue de Beaujolais	48.8661365	2.3385748
Rue de Beaune	48.8581866	2.3294696
Rue de Belfort	48.8564029	2.3833485
Rue de Belgrade	48.8557522	2.3018559
Rue de Bellechasse	48.8575372	2.3221554
Rue de Bellefond	48.8778444	2.3470272
Rue de Belleville	48.8754576	2.391375
Rue de Bellevue	48.8794993	2.3943372
Rue de Belloy	48.8687074	2.2925587
Rue de Belzunce	48.8794153	2.35164
Rue de Bercy	48.8418736	2.3768113
Rue de Bérite	48.8477696	2.3240862
Rue de Berne	48.8808136	2.3233146
Rue de Berri	48.8737101	2.3065167
Rue de Bièvre	48.8505639	2.3502492
Rue de Bigorre	48.8281698	2.3309621
Rue de Birague	48.854821	2.3652259
Rue de Bizerte	48.8849765	2.3230903
Rue de Boulainvilliers	48.8546322	2.2754179
Rue de Bourbon le Château	48.8538217	2.3362937
Rue de Bourgogne	48.8575711	2.3175233
Rue de Bouvines	48.8498439	2.3955062
Rue de Braque	48.8606517	2.3572947
Rue de Bretagne	48.8631601	2.3620125
Rue de Bretonvilliers	48.8509455	2.3590492
Rue de Brissac	48.8489197	2.3648941
Rue de Brosse	48.8552261	2.3538166
Rue de Bruxelles	48.8832775	2.3305504
Rue de Bucarest	48.8806391	2.3258253
Rue de Buci	48.8538084	2.3368208
Rue de Budapest	48.8766865	2.3274617
Rue de Buenos Ayres	48.8572361	2.2923918
Rue de Buzenval	48.8521085	2.4012507
Rue de Cadix	48.8342864	2.288874
Rue de Cahors	48.8857904	2.3951648
Rue de Calais	48.8824279	2.3310586
Rue de Cambo	48.8778988	2.3974433
Rue de Cambrai	48.8953413	2.3788745
Rue de Campo-Formio	48.8346531	2.3597677
Rue de Candie	48.8513511	2.379744
Rue de Candolle	48.8399135	2.3511917
Rue de Capri	48.8358309	2.3983643
Rue de Casablanca	48.8388574	2.289063
Rue de Castellane	48.8723675	2.3248953
Rue de Castiglione	48.8659408	2.3279081
Rue de Caumartin	48.8730612	2.3283179
Rue de Cerisoles	48.8687076	2.3027394
Rue de Chablis	48.8363324	2.3850691
Rue de Chabrol	48.8769522	2.3525354
Rue de Chaillot	48.8672296	2.2973788
Rue de Chaligny	48.8471228	2.3838028
Rue de Chalon	48.8445526	2.3766425
Rue de Chambertin	48.8399625	2.3798404
Rue de Chambéry	48.8311311	2.3035736
Rue de Champagny	48.8579596	2.3185232
Rue de Chanaleilles	48.8532528	2.3174986
Rue de Chantilly	48.8780909	2.3469289
Rue de Charenton	48.843252	2.3853469
Rue de Charonne	48.8544208	2.3840704
Rue de Chartres	48.8846183	2.3540108
Rue de Châteaudun	48.876085	2.337131
Rue de Châtillon	48.8275703	2.3233086
Rue de Chaumont	48.8811194	2.3718326
Rue de Chazelles	48.8800736	2.3046359
Rue de Cherbourg	48.8311699	2.3040436
Rue de Cheverus	48.8777269	2.3315411
Rue de Chevreuse	48.8415907	2.331198
Rue de Choiseul	48.8701943	2.3359704
Rue de Civry	48.8432241	2.2577934
Rue de Cléry	48.8685929	2.3482527
Rue de Clichy	48.8798848	2.3291391
Rue de Clignancourt	48.8890521	2.3481628
Rue de Cluny	48.8508234	2.3448533
Rue de Colmar	48.888177	2.3805033
Rue de Commaille	48.8527299	2.3241308
Rue de Compiègne	48.8799123	2.3535373
Rue de Condé	48.8505154	2.3380293
Rue de Constantine	48.8596147	2.3148016
Rue de Constantinople	48.8801183	2.3200048
Rue de Copenhague	48.8802068	2.320283
Rue de Cotte	48.8494061	2.3776347
Rue de Coulmiers	48.8249262	2.3236097
Rue de Courcelles	48.8807628	2.3015552
Rue de Courty	48.8611159	2.3203051
Rue de Crimée	48.8859581	2.3821887
Rue de Cronstadt	48.8345276	2.3021162
Rue de Croulebarbe	48.8326179	2.3508998
Rue de Crussol	48.8643424	2.3686707
Rue de Damiette	48.8678996	2.3484152
Rue de Dantzig	48.8329577	2.2981015
Rue de Dijon	48.8353575	2.385481
Rue de Domrémy	48.8296101	2.3715639
Rue de Douai	48.8827666	2.3321832
Rue de Dreux	48.8793693	2.2804692
Rue de Dunkerque	48.880813	2.3511817
Rue de Duras	48.8711946	2.3181901
Rue de Fécamp	48.8358763	2.3997004
Rue de Fleurus	48.8470779	2.329928
Rue de Florence	48.8821486	2.3252081
Rue de Fontarabie	48.8575433	2.401749
Rue de Fourcy	48.8551198	2.3594047
Rue de Franche Comté	48.8645529	2.3636136
Rue de Franqueville	48.8615206	2.2705617
Rue de Furstemberg	48.854391	2.3357959
Rue de Galliera	48.8657616	2.2975288
Rue de Gergovie	48.8327603	2.3164967
Rue de Gramont	48.8700889	2.3368387
Rue de Grancey	48.8341099	2.3309482
Rue de Gravelle	48.8360108	2.3975418
Rue de Grenelle	48.8575711	2.3175233
Rue de Gribeauval	48.8560628	2.3275014
Rue de Guébriant	48.8730952	2.4093197
Rue de Hanovre	48.8701931	2.3348235
Rue de Harlay	48.8562626	2.3429526
Rue de Hesse	48.8590608	2.3656295
Rue de Jarente	48.8556983	2.363003
Rue de Javel	48.8436835	2.2866411
Rue de Jessaint	48.8849219	2.3568105
Rue de Joinville	48.8903496	2.379085
Rue de Jouy	48.8549003	2.3582262
Rue de Julienne	48.8349769	2.3467869
Rue de Kabylie	48.8846312	2.3679779
Rue de la Banque	48.8674532	2.3406882
Rue de la Barrière Blanche	48.8892771	2.330785
Rue de la Bastille	48.8538277	2.3681781
Rue de la Baume	48.8745794	2.3121345
Rue de la Bidassoa	48.8665295	2.3932314
Rue de la Bienfaisance	48.8766384	2.3173568
Rue de la Bonne	48.8880505	2.3434896
Rue de la Boule Rouge	48.8739288	2.3448935
Rue de la Bourse	48.8695388	2.3394783
Rue de la Brèche aux Loups	48.8378819	2.3944172
Rue de la Briqueterie	48.8278679	2.3066296
Rue de la Bûcherie	48.8521422	2.3481285
Rue de la Butte aux Cailles	48.8277784	2.3502415
Rue de la Cavalerie	48.8497772	2.3003196
Rue de la Cerisaie	48.85203	2.3658666
Rue de la Chaise	48.8531776	2.3271514
Rue de la Chapelle	48.8945638	2.3594808
Rue de la Charbonnière	48.8845807	2.3538687
Rue de la Chaussée d'Antin	48.8735359	2.3330477
Rue de la Chine	48.8674898	2.3988642
Rue de la Cité	48.8545034	2.3476632
Rue de la Cité Universitaire	48.8204857	2.3414195
Rue de la Clef	48.8411398	2.3526289
Rue de la Clôture	48.897474	2.3941229
Rue de la Collégiale	48.8378454	2.352152
Rue de la Colombe	48.8545479	2.3503308
Rue de la Colonie	48.8239956	2.3490058
Rue de la Comète	48.8585409	2.3092041
Rue de la Convention	48.8401754	2.2899544
Rue de la Corderie	48.8651801	2.3630122
Rue de la Corrèze	48.883971	2.3953658
Rue de la Cossonnerie	48.8613695	2.3489553
Rue de la Cour des Noues	48.8643034	2.4019333
Rue de la Coutellerie	48.8573106	2.3499044
Rue de la Crèche	48.8900889	2.3069884
Rue de la Croix Faubin	48.8580698	2.385819
Rue de la Croix Jarry	48.8270751	2.3818895
Rue de la Croix Moreau	48.895616	2.364219
Rue de la Croix Nivert	48.8423472	2.2941744
Rue de la Croix Saint-Simon	48.8546148	2.40849
Rue de la Cure	48.8531791	2.2680601
Rue de la Dhuis	48.8679691	2.4048357
Rue de la Duée	48.8712936	2.3967621
Rue de la Durance	48.8385658	2.3932003
Rue de la Faisanderie	48.8677316	2.2752397
Rue de la Fédération	48.8539027	2.2938266
Rue de la Félicité	48.887711	2.3113929
Rue de la Ferme de Savy	48.87202	2.3831938
Rue de la Ferronnerie	48.8603141	2.3473555
Rue de la Fidélité	48.874425	2.3559146
Rue de la Folie Méricourt	48.8648927	2.371127
Rue de la Folie-Regnault	48.8598805	2.3865659
Rue de la Fontaine À Mulard	48.8230005	2.3488657
Rue de la Fontaine au Roi	48.8682942	2.374231
Rue de la Fontaine du But	48.8905223	2.3392016
Rue de la Forge Royale	48.851246	2.3803813
Rue de la Fraternité	48.8819368	2.3935111
Rue de la Gaité	48.8396541	2.323541
Rue de la Gare de Reuilly	48.8422431	2.3964866
Rue de la Glacière	48.8319238	2.3444321
Rue de la Goutte d'Or	48.8850327	2.3522305
Rue de la Grande Chaumière	48.8422079	2.3305095
Rue de la Grande Truanderie	48.862674	2.3495906
Rue de la Grange aux Belles	48.8756558	2.3673161
Rue de la Grange Batelière	48.8730649	2.3422413
Rue de la Grenade	48.889246	2.3987123
Rue de la Guadeloupe	48.8907018	2.3623122
Rue de la Haie Coq	48.9065712	2.3729357
Rue de la Harpe	48.8519568	2.3441796
Rue de la Huchette	48.8530595	2.3454736
Rue de La Jonquière	48.8939293	2.3215538
Rue de la Jussienne	48.8653273	2.3442496
Rue de la Justice	48.8693733	2.407586
Rue de la Lancette	48.8369404	2.3934769
Rue de la Légion d'Honneur	48.8601948	2.324702
Rue de la Liberté	48.8807885	2.3928903
Rue de la Lingerie	48.8603792	2.3465061
Rue de la Louisiane	48.8912976	2.3622958
Rue de la Lune	48.8697695	2.3497315
Rue de la Madone	48.892517	2.3616511
Rue de la Main d'Or	48.8516353	2.377937
Rue de la Maison Blanche	48.8259342	2.3580144
Rue de la Manutention	48.8642144	2.2959093
Rue de la Mare	48.8709022	2.3897304
Rue de la Marne	48.8895297	2.3837716
Rue de la Marseillaise	48.8878123	2.3980182
Rue de la Martinique	48.891302	2.3618389
Rue de la Meurthe	48.8894	2.3833505
Rue de la Michodière	48.8699231	2.3348292
Rue de la Mire	48.8865142	2.3384271
Rue de la Mission Marchand	48.8499341	2.2656821
Rue de la Monnaie	48.859148	2.3428837
Rue de la Montagne d'Aulas	48.8403363	2.27898
Rue de la Montagne de la Fage	48.8396671	2.2770627
Rue de la Montagne Sainte Geneviève	48.8481228	2.3485311
Rue de la Moselle	48.8852431	2.3761671
Rue de la Moskova	48.8968657	2.3345807
Rue de la Nativité	48.8351938	2.3867121
Rue de la Néva	48.8784087	2.3006091
Rue de la Nouvelle-Calédonie	48.8379578	2.4100004
Rue de la Paix	48.8695761	2.3315269
Rue de la Parcheminerie	48.8517288	2.3448919
Rue de la Pépinière	48.8750393	2.3217834
Rue de la Perle	48.859881	2.3608494
Rue de la Petite Arche	48.8355696	2.2615117
Rue de la Petite Pierre	48.8547416	2.3899122
Rue de la Petite Truanderie	48.8628336	2.3484704
Rue de la Pierre Levée	48.8672664	2.3705372
Rue de la Plaine	48.8499818	2.402777
Rue de la Planche	48.8530641	2.3253303
Rue de la Pointe d'Ivry	48.8226912	2.3644907
Rue de la Pompe	48.8655695	2.2793144
Rue de la Porte d'Issy	48.8332541	2.2824502
Rue de la Présentation	48.8711371	2.3767048
Rue de la Prévoyance	48.8830386	2.3932001
Rue de la Procession	48.8373994	2.3082707
Rue de la Py	48.8648386	2.4054062
Rue de la Reine Blanche	48.8364982	2.3537431
Rue de la Renaissance	48.8675898	2.3023642
Rue de la Réunion	48.8553796	2.4013476
Rue de la Reynie	48.8600465	2.3490755
Rue de la Rochefoucauld	48.8789261	2.3346461
Rue de la Roquette	48.8570275	2.3785468
Rue de la Rosière	48.8445006	2.2890373
Rue de la Sablière	48.8318869	2.3231703
Rue de la Saïda	48.8321723	2.2954189
Rue de la Santé	48.8323601	2.3411326
Rue de la Saône	48.8281319	2.3296042
Rue de la Solidarité	48.8839175	2.3917107
Rue de la Sorbonne	48.8491938	2.3431985
Rue de la Source	48.8509504	2.2673378
Rue de la Sourdière	48.8658779	2.3321852
Rue de la Tacherie	48.8573106	2.3499044
Rue de la Terrasse	48.881961	2.3135515
Rue de la Tombe Issoire	48.8278228	2.3325422
Rue de la Tour	48.861754	2.2783497
Rue de la Tour d'Auvergne	48.8792433	2.3432272
Rue de la Tour des Dames	48.8777641	2.3331913
Rue de la Trinité	48.8777629	2.3311732
Rue de la Véga	48.8384679	2.4050996
Rue de la Verrerie	48.8579752	2.3530064
Rue de la Victoire	48.8752193	2.3352235
Rue de la ville Neuve	48.8699582	2.3486362
Rue de la Villette	48.8771123	2.3878797
Rue de la Vistule	48.8230509	2.3594198
Rue de la Voûte	48.8460528	2.4078516
Rue de la Vrillière	48.8656269	2.3401634
Rue de l'Abbaye	48.8542156	2.3348554
Rue de l'Abbé Carton	48.8289841	2.317853
Rue de l'Abbé Gillet	48.8568941	2.2806248
Rue de l'Abbé Grégoire	48.8484783	2.3246531
Rue de l'Abbé Groult	48.839224	2.2971438
Rue de l'Abbé Patureau	48.8893134	2.341817
Rue de l'Abbé Roger Derry	48.8504553	2.3019551
Rue de l'Abbé Rousselot	48.8893927	2.3007325
Rue de l'Abbé Soulange-Bodin	48.8357895	2.3176043
Rue de Laborde	48.8756822	2.3196154
Rue de l'Abreuvoir	48.8882424	2.338944
Rue de l'Adjudant Réau	48.8675497	2.4055376
Rue de l'Agent Bailly	48.8784577	2.3418836
